[{
	"name": "北京大学",
	"province_name": "北京市",
	"city_name": "北京市",
	"district_name": "海淀区",
	"address": "北京市海淀区颐和园路5号",
	"ad_code": "110108",
	"type": "普通本科",
	"location": "116.308264,39.995304",
	"geo_location": {
		"longitude": 116.308264,
		"latitude": 39.995304
	},
	"geo_point": {
		"longitude": 116.308264,
		"latitude": 39.995304
	}
}, {
	"name": "中国人民大学",
	"province_name": "北京市",
	"city_name": "北京市",
	"district_name": "海淀区",
	"address": "北京市海淀区中关村大街59号",
	"ad_code": "110108",
	"type": "普通本科",
	"location": "116.311529,39.968448",
	"geo_location": {
		"longitude": 116.311529,
		"latitude": 39.968448
	},
	"geo_point": {
		"longitude": 116.311529,
		"latitude": 39.968448
	}
}, {
	"name": "清华大学",
	"province_name": "北京市",
	"city_name": "北京市",
	"district_name": "海淀区",
	"address": "北京市海淀区清华园1号",
	"ad_code": "110108",
	"type": "普通本科",
	"location": "116.326582,40.002436",
	"geo_location": {
		"longitude": 116.326582,
		"latitude": 40.002436
	},
	"geo_point": {
		"longitude": 116.326582,
		"latitude": 40.002436
	}
}, {
	"name": "北京交通大学",
	"province_name": "北京市",
	"city_name": "北京市",
	"district_name": "海淀区",
	"address": "北京市海淀区西直门外上园村3号",
	"ad_code": "110108",
	"type": "普通本科",
	"location": "116.339340,39.950612",
	"geo_location": {
		"longitude": 116.33934,
		"latitude": 39.950612
	},
	"geo_point": {
		"longitude": 116.33934,
		"latitude": 39.950612
	}
}, {
	"name": "北京工业大学",
	"province_name": "北京市",
	"city_name": "北京市",
	"district_name": "朝阳区",
	"address": "平乐园校区：北京市朝阳区平乐园100号,通州校区：北京市通州区潞苑南大街89号",
	"ad_code": "110105",
	"type": "普通本科",
	"location": "116.481374,39.877484",
	"geo_location": {
		"longitude": 116.481374,
		"latitude": 39.877484
	},
	"geo_point": {
		"longitude": 116.481374,
		"latitude": 39.877484
	}
}, {
	"name": "北京航空航天大学",
	"province_name": "北京市",
	"city_name": "北京市",
	"district_name": "海淀区",
	"address": "学院路校区：北京市海淀区学院路37号;沙河校区：北京市昌平区沙河高教园区",
	"ad_code": "110108",
	"type": "普通本科",
	"location": "116.347313,39.981771",
	"geo_location": {
		"longitude": 116.347313,
		"latitude": 39.981771
	},
	"geo_point": {
		"longitude": 116.347313,
		"latitude": 39.981771
	}
}, {
	"name": "北京理工大学",
	"province_name": "北京市",
	"city_name": "北京市",
	"district_name": "海淀区",
	"address": "北京市海淀区中关村南大街5号",
	"ad_code": "110108",
	"type": "普通本科",
	"location": "116.322262,39.957401",
	"geo_location": {
		"longitude": 116.322262,
		"latitude": 39.957401
	},
	"geo_point": {
		"longitude": 116.322262,
		"latitude": 39.957401
	}
}, {
	"name": "北京科技大学",
	"province_name": "北京市",
	"city_name": "北京市",
	"district_name": "海淀区",
	"address": "北京市海淀区学院路30号",
	"ad_code": "110108",
	"type": "普通本科",
	"location": "116.359375,39.988717",
	"geo_location": {
		"longitude": 116.359375,
		"latitude": 39.988717
	},
	"geo_point": {
		"longitude": 116.359375,
		"latitude": 39.988717
	}
}, {
	"name": "北方工业大学",
	"province_name": "北京市",
	"city_name": "北京市",
	"district_name": "石景山区",
	"address": "北京市石景山区晋元庄路5号",
	"ad_code": "110107",
	"type": "普通本科",
	"location": "116.209307,39.928891",
	"geo_location": {
		"longitude": 116.209307,
		"latitude": 39.928891
	},
	"geo_point": {
		"longitude": 116.209307,
		"latitude": 39.928891
	}
}, {
	"name": "北京化工大学",
	"province_name": "北京市",
	"city_name": "北京市",
	"district_name": "朝阳区",
	"address": "北京市朝阳区北三环东路15号",
	"ad_code": "110105",
	"type": "普通本科",
	"location": "116.420818,39.970398",
	"geo_location": {
		"longitude": 116.420818,
		"latitude": 39.970398
	},
	"geo_point": {
		"longitude": 116.420818,
		"latitude": 39.970398
	}
}, {
	"name": "北京工商大学",
	"province_name": "北京市",
	"city_name": "北京市",
	"district_name": "海淀区",
	"address": "北京市海淀区阜成路33号",
	"ad_code": "110108",
	"type": "普通本科",
	"location": "116.319878,39.925939",
	"geo_location": {
		"longitude": 116.319878,
		"latitude": 39.925939
	},
	"geo_point": {
		"longitude": 116.319878,
		"latitude": 39.925939
	}
}, {
	"name": "北京服装学院",
	"province_name": "北京市",
	"city_name": "北京市",
	"district_name": "朝阳区",
	"address": "樱花园校区位于北京市朝阳区樱花园东街甲2号,芍药居校区位于北京市朝阳区芍药居甲1号",
	"ad_code": "110105",
	"type": "普通本科",
	"location": "116.430602,39.974503",
	"geo_location": {
		"longitude": 116.430602,
		"latitude": 39.974503
	},
	"geo_point": {
		"longitude": 116.430602,
		"latitude": 39.974503
	}
}, {
	"name": "北京邮电大学",
	"province_name": "北京市",
	"city_name": "北京市",
	"district_name": "海淀区",
	"address": "北京市西土城路10号",
	"ad_code": "110108",
	"type": "普通本科",
	"location": "116.358103,39.961554",
	"geo_location": {
		"longitude": 116.358103,
		"latitude": 39.961554
	},
	"geo_point": {
		"longitude": 116.358103,
		"latitude": 39.961554
	}
}, {
	"name": "北京印刷学院",
	"province_name": "北京市",
	"city_name": "北京市",
	"district_name": "大兴区",
	"address": "北京市大兴区兴华大街（二段）1号",
	"ad_code": "110115",
	"type": "普通本科",
	"location": "116.329503,39.744558",
	"geo_location": {
		"longitude": 116.329503,
		"latitude": 39.744558
	},
	"geo_point": {
		"longitude": 116.329503,
		"latitude": 39.744558
	}
}, {
	"name": "北京建筑大学",
	"province_name": "北京市",
	"city_name": "北京市",
	"district_name": "西城区",
	"address": "西城校区：北京市西城区展览馆路1号,大兴校区：北京市大兴区永源路15号",
	"ad_code": "110102",
	"type": "普通本科",
	"location": "116.341093,39.936144",
	"geo_location": {
		"longitude": 116.341093,
		"latitude": 39.936144
	},
	"geo_point": {
		"longitude": 116.341093,
		"latitude": 39.936144
	}
}, {
	"name": "北京石油化工学院",
	"province_name": "北京市",
	"city_name": "北京市",
	"district_name": "大兴区",
	"address": "北京市大兴区黄村镇清源北路19号",
	"ad_code": "110115",
	"type": "普通本科",
	"location": "116.325768,39.748175",
	"geo_location": {
		"longitude": 116.325768,
		"latitude": 39.748175
	},
	"geo_point": {
		"longitude": 116.325768,
		"latitude": 39.748175
	}
}, {
	"name": "北京电子科技学院",
	"province_name": "北京市",
	"city_name": "北京市",
	"district_name": "丰台区",
	"address": "北京市丰台区富丰路7号",
	"ad_code": "110106",
	"type": "普通本科",
	"location": "116.279773,39.837164",
	"geo_location": {
		"longitude": 116.279773,
		"latitude": 39.837164
	},
	"geo_point": {
		"longitude": 116.279773,
		"latitude": 39.837164
	}
}, {
	"name": "中国农业大学",
	"province_name": "北京市",
	"city_name": "北京市",
	"district_name": "海淀区",
	"address": "北京市海淀区清华东路17号",
	"ad_code": "110108",
	"type": "普通本科",
	"location": "116.355035,40.005721",
	"geo_location": {
		"longitude": 116.355035,
		"latitude": 40.005721
	},
	"geo_point": {
		"longitude": 116.355035,
		"latitude": 40.005721
	}
}, {
	"name": "北京农学院",
	"province_name": "北京市",
	"city_name": "北京市",
	"district_name": "昌平区",
	"address": "北京市昌平区回龙观镇北农路7号",
	"ad_code": "110114",
	"type": "普通本科",
	"location": "116.311673,40.096215",
	"geo_location": {
		"longitude": 116.311673,
		"latitude": 40.096215
	},
	"geo_point": {
		"longitude": 116.311673,
		"latitude": 40.096215
	}
}, {
	"name": "北京林业大学",
	"province_name": "北京市",
	"city_name": "北京市",
	"district_name": "海淀区",
	"address": "北京市海淀区清华东路35号",
	"ad_code": "110108",
	"type": "普通本科",
	"location": "116.341404,40.002502",
	"geo_location": {
		"longitude": 116.341404,
		"latitude": 40.002502
	},
	"geo_point": {
		"longitude": 116.341404,
		"latitude": 40.002502
	}
}, {
	"name": "北京协和医学院",
	"province_name": "北京市",
	"city_name": "北京市",
	"district_name": "石景山区",
	"address": "北京市东单三条9号",
	"ad_code": "110107",
	"type": "普通本科",
	"location": "116.199644,39.943824",
	"geo_location": {
		"longitude": 116.199644,
		"latitude": 39.943824
	},
	"geo_point": {
		"longitude": 116.199644,
		"latitude": 39.943824
	}
}, {
	"name": "首都医科大学",
	"province_name": "北京市",
	"city_name": "北京市",
	"district_name": "丰台区",
	"address": "北京市丰台区右安门外西头条10号",
	"ad_code": "110106",
	"type": "普通本科",
	"location": "116.352795,39.863488",
	"geo_location": {
		"longitude": 116.352795,
		"latitude": 39.863488
	},
	"geo_point": {
		"longitude": 116.352795,
		"latitude": 39.863488
	}
}, {
	"name": "北京中医药大学",
	"province_name": "北京市",
	"city_name": "北京市",
	"district_name": "朝阳区",
	"address": "北京市朝阳区北三环东路11号",
	"ad_code": "110105",
	"type": "普通本科",
	"location": "116.428174,39.971334",
	"geo_location": {
		"longitude": 116.428174,
		"latitude": 39.971334
	},
	"geo_point": {
		"longitude": 116.428174,
		"latitude": 39.971334
	}
}, {
	"name": "北京师范大学",
	"province_name": "北京市",
	"city_name": "北京市",
	"district_name": "海淀区",
	"address": "北太平庄校区北京市新街口外大街19号",
	"ad_code": "110108",
	"type": "普通本科",
	"location": "116.364489,39.964655",
	"geo_location": {
		"longitude": 116.364489,
		"latitude": 39.964655
	},
	"geo_point": {
		"longitude": 116.364489,
		"latitude": 39.964655
	}
}, {
	"name": "首都师范大学",
	"province_name": "北京市",
	"city_name": "北京市",
	"district_name": "海淀区",
	"address": "北京市海淀区西三环北路105号",
	"ad_code": "110108",
	"type": "普通本科",
	"location": "116.306586,39.930698",
	"geo_location": {
		"longitude": 116.306586,
		"latitude": 39.930698
	},
	"geo_point": {
		"longitude": 116.306586,
		"latitude": 39.930698
	}
}, {
	"name": "首都体育学院",
	"province_name": "北京市",
	"city_name": "北京市",
	"district_name": "海淀区",
	"address": "北京市海淀区北三环西路11号",
	"ad_code": "110108",
	"type": "普通本科",
	"location": "116.345994,39.970414",
	"geo_location": {
		"longitude": 116.345994,
		"latitude": 39.970414
	},
	"geo_point": {
		"longitude": 116.345994,
		"latitude": 39.970414
	}
}, {
	"name": "北京外国语大学",
	"province_name": "北京市",
	"city_name": "北京市",
	"district_name": "海淀区",
	"address": "北京市海淀区西三环北路2号",
	"ad_code": "110108",
	"type": "普通本科",
	"location": "116.312886,39.955213",
	"geo_location": {
		"longitude": 116.312886,
		"latitude": 39.955213
	},
	"geo_point": {
		"longitude": 116.312886,
		"latitude": 39.955213
	}
}, {
	"name": "北京第二外国语学院",
	"province_name": "北京市",
	"city_name": "北京市",
	"district_name": "朝阳区",
	"address": "北京市朝阳区定福庄南里1号",
	"ad_code": "110105",
	"type": "普通本科",
	"location": "116.563419,39.912732",
	"geo_location": {
		"longitude": 116.563419,
		"latitude": 39.912732
	},
	"geo_point": {
		"longitude": 116.563419,
		"latitude": 39.912732
	}
}, {
	"name": "北京语言大学",
	"province_name": "北京市",
	"city_name": "北京市",
	"district_name": "海淀区",
	"address": "北京市海淀区学院路15号",
	"ad_code": "110108",
	"type": "普通本科",
	"location": "116.346393,39.994835",
	"geo_location": {
		"longitude": 116.346393,
		"latitude": 39.994835
	},
	"geo_point": {
		"longitude": 116.346393,
		"latitude": 39.994835
	}
}, {
	"name": "中国传媒大学",
	"province_name": "北京市",
	"city_name": "北京市",
	"district_name": "朝阳区",
	"address": "北京市朝阳区定福庄东街一号",
	"ad_code": "110105",
	"type": "普通本科",
	"location": "116.554639,39.909215",
	"geo_location": {
		"longitude": 116.554639,
		"latitude": 39.909215
	},
	"geo_point": {
		"longitude": 116.554639,
		"latitude": 39.909215
	}
}, {
	"name": "中央财经大学",
	"province_name": "北京市",
	"city_name": "北京市",
	"district_name": "海淀区",
	"address": "学院南路校区地址：北京市海淀区学院南路39号;沙河校区地址：北京市昌平区沙河高教园区",
	"ad_code": "110108",
	"type": "普通本科",
	"location": "116.344304,39.959450",
	"geo_location": {
		"longitude": 116.344304,
		"latitude": 39.95945
	},
	"geo_point": {
		"longitude": 116.344304,
		"latitude": 39.95945
	}
}, {
	"name": "桂林生命与健康职业技术学院",
	"province_name": "广西壮族自治区",
	"city_name": "桂林市",
	"district_name": [],
	"address": "广西省桂林市秀峰区中隐西路1号",
	"ad_code": "450300",
	"type": "专科（高职）",
	"location": "110.290194,25.273566",
	"geo_location": {
		"longitude": 110.290194,
		"latitude": 25.273566
	},
	"geo_point": {
		"longitude": 110.290194,
		"latitude": 25.273566
	}
}, {
	"name": "对外经济贸易大学",
	"province_name": "北京市",
	"city_name": "北京市",
	"district_name": "朝阳区",
	"address": "北京市朝阳区惠新东街10号",
	"ad_code": "110105",
	"type": "普通本科",
	"location": "116.427721,39.980381",
	"geo_location": {
		"longitude": 116.427721,
		"latitude": 39.980381
	},
	"geo_point": {
		"longitude": 116.427721,
		"latitude": 39.980381
	}
}, {
	"name": "北京物资学院",
	"province_name": "北京市",
	"city_name": "北京市",
	"district_name": "通州区",
	"address": "北京市通州区富河大街321号",
	"ad_code": "110112",
	"type": "普通本科",
	"location": "116.638282,39.930756",
	"geo_location": {
		"longitude": 116.638282,
		"latitude": 39.930756
	},
	"geo_point": {
		"longitude": 116.638282,
		"latitude": 39.930756
	}
}, {
	"name": "首都经济贸易大学",
	"province_name": "北京市",
	"city_name": "北京市",
	"district_name": "朝阳区",
	"address": "校本部位于北京市丰台区花乡张家路口121号,红庙校区位于北京市朝阳门外金台里2号",
	"ad_code": "110105",
	"type": "普通本科",
	"location": "116.427721,39.980381",
	"geo_location": {
		"longitude": 116.427721,
		"latitude": 39.980381
	},
	"geo_point": {
		"longitude": 116.427721,
		"latitude": 39.980381
	}
}, {
	"name": "中国消防救援学院",
	"province_name": "北京市",
	"city_name": "北京市",
	"district_name": "丰台区",
	"address": "北京市昌平区南雁路4号",
	"ad_code": "110106",
	"type": "普通本科",
	"location": "116.437399,39.864339",
	"geo_location": {
		"longitude": 116.437399,
		"latitude": 39.864339
	},
	"geo_point": {
		"longitude": 116.437399,
		"latitude": 39.864339
	}
}, {
	"name": "外交学院",
	"province_name": "北京市",
	"city_name": "北京市",
	"district_name": "西城区",
	"address": "展览馆路校区位于北京市西城区展览馆路24号,沙河校区位于北京市昌平区沙河高教园区",
	"ad_code": "110102",
	"type": "普通本科",
	"location": "116.345593,39.926651",
	"geo_location": {
		"longitude": 116.345593,
		"latitude": 39.926651
	},
	"geo_point": {
		"longitude": 116.345593,
		"latitude": 39.926651
	}
}, {
	"name": "中国人民公安大学",
	"province_name": "北京市",
	"city_name": "北京市",
	"district_name": "大兴区",
	"address": "木樨地校区：北京市西城区木樨地南里1号,团河校区：北京市大兴区团河路",
	"ad_code": "110115",
	"type": "普通本科",
	"location": "116.368353,39.763662",
	"geo_location": {
		"longitude": 116.368353,
		"latitude": 39.763662
	},
	"geo_point": {
		"longitude": 116.368353,
		"latitude": 39.763662
	}
}, {
	"name": "国际关系学院",
	"province_name": "北京市",
	"city_name": "北京市",
	"district_name": "海淀区",
	"address": "北京市海淀区坡上村12号",
	"ad_code": "110108",
	"type": "普通本科",
	"location": "116.285553,40.003460",
	"geo_location": {
		"longitude": 116.285553,
		"latitude": 40.00346
	},
	"geo_point": {
		"longitude": 116.285553,
		"latitude": 40.00346
	}
}, {
	"name": "北京体育大学",
	"province_name": "北京市",
	"city_name": "北京市",
	"district_name": "海淀区",
	"address": "北京市海淀区信息路48号",
	"ad_code": "110108",
	"type": "普通本科",
	"location": "116.318919,40.024420",
	"geo_location": {
		"longitude": 116.318919,
		"latitude": 40.02442
	},
	"geo_point": {
		"longitude": 116.318919,
		"latitude": 40.02442
	}
}, {
	"name": "中央音乐学院",
	"province_name": "北京市",
	"city_name": "北京市",
	"district_name": "西城区",
	"address": "中国北京西城区鲍家街43号",
	"ad_code": "110102",
	"type": "普通本科",
	"location": "116.359121,39.902451",
	"geo_location": {
		"longitude": 116.359121,
		"latitude": 39.902451
	},
	"geo_point": {
		"longitude": 116.359121,
		"latitude": 39.902451
	}
}, {
	"name": "中国音乐学院",
	"province_name": "北京市",
	"city_name": "北京市",
	"district_name": "朝阳区",
	"address": "北京市朝阳区安翔路1号",
	"ad_code": "110105",
	"type": "普通本科",
	"location": "116.379718,39.991957",
	"geo_location": {
		"longitude": 116.379718,
		"latitude": 39.991957
	},
	"geo_point": {
		"longitude": 116.379718,
		"latitude": 39.991957
	}
}, {
	"name": "中央美术学院",
	"province_name": "北京市",
	"city_name": "北京市",
	"district_name": "朝阳区",
	"address": "北京市朝阳区花家地南街8号",
	"ad_code": "110105",
	"type": "普通本科",
	"location": "116.464698,39.982014",
	"geo_location": {
		"longitude": 116.464698,
		"latitude": 39.982014
	},
	"geo_point": {
		"longitude": 116.464698,
		"latitude": 39.982014
	}
}, {
	"name": "中央戏剧学院",
	"province_name": "北京市",
	"city_name": "北京市",
	"district_name": "昌平区",
	"address": "东城校区地址：北京市东城区东棉花胡同39号;昌平校区地址：北京市昌平区宏福中路4号",
	"ad_code": "110114",
	"type": "普通本科",
	"location": "116.375727,40.104715",
	"geo_location": {
		"longitude": 116.375727,
		"latitude": 40.104715
	},
	"geo_point": {
		"longitude": 116.375727,
		"latitude": 40.104715
	}
}, {
	"name": "中国戏曲学院",
	"province_name": "北京市",
	"city_name": "北京市",
	"district_name": "丰台区",
	"address": "北京市丰台区万泉寺400号",
	"ad_code": "110106",
	"type": "普通本科",
	"location": "116.332579,39.863736",
	"geo_location": {
		"longitude": 116.332579,
		"latitude": 39.863736
	},
	"geo_point": {
		"longitude": 116.332579,
		"latitude": 39.863736
	}
}, {
	"name": "北京电影学院",
	"province_name": "北京市",
	"city_name": "北京市",
	"district_name": "海淀区",
	"address": "北京市海淀区西土城路4号",
	"ad_code": "110108",
	"type": "普通本科",
	"location": "116.356356,39.970156",
	"geo_location": {
		"longitude": 116.356356,
		"latitude": 39.970156
	},
	"geo_point": {
		"longitude": 116.356356,
		"latitude": 39.970156
	}
}, {
	"name": "北京舞蹈学院",
	"province_name": "北京市",
	"city_name": "北京市",
	"district_name": "海淀区",
	"address": "北京海淀区万寿寺路一号",
	"ad_code": "110108",
	"type": "普通本科",
	"location": "116.319718,39.947313",
	"geo_location": {
		"longitude": 116.319718,
		"latitude": 39.947313
	},
	"geo_point": {
		"longitude": 116.319718,
		"latitude": 39.947313
	}
}, {
	"name": "中央民族大学",
	"province_name": "北京市",
	"city_name": "北京市",
	"district_name": "海淀区",
	"address": "北京市海淀区中关村南大街27号",
	"ad_code": "110108",
	"type": "普通本科",
	"location": "116.321546,39.950952",
	"geo_location": {
		"longitude": 116.321546,
		"latitude": 39.950952
	},
	"geo_point": {
		"longitude": 116.321546,
		"latitude": 39.950952
	}
}, {
	"name": "中国政法大学",
	"province_name": "北京市",
	"city_name": "北京市",
	"district_name": "海淀区",
	"address": "北京市昌平区府学路27号",
	"ad_code": "110108",
	"type": "普通本科",
	"location": "116.351528,39.965773",
	"geo_location": {
		"longitude": 116.351528,
		"latitude": 39.965773
	},
	"geo_point": {
		"longitude": 116.351528,
		"latitude": 39.965773
	}
}, {
	"name": "华北电力大学",
	"province_name": "北京市",
	"city_name": "北京市",
	"district_name": "昌平区",
	"address": "北京市昌平区回龙观北农路2号",
	"ad_code": "110114",
	"type": "普通本科",
	"location": "116.310015,40.089676",
	"geo_location": {
		"longitude": 116.310015,
		"latitude": 40.089676
	},
	"geo_point": {
		"longitude": 116.310015,
		"latitude": 40.089676
	}
}, {
	"name": "南开大学",
	"province_name": "天津市",
	"city_name": "天津市",
	"district_name": "南开区",
	"address": "天津市南开区卫津路94号",
	"ad_code": "120104",
	"type": "普通本科",
	"location": "117.169990,39.103958",
	"geo_location": {
		"longitude": 117.16999,
		"latitude": 39.103958
	},
	"geo_point": {
		"longitude": 117.16999,
		"latitude": 39.103958
	}
}, {
	"name": "天津大学",
	"province_name": "天津市",
	"city_name": "天津市",
	"district_name": "南开区",
	"address": "天津市南开区卫津路92号",
	"ad_code": "120104",
	"type": "普通本科",
	"location": "117.169884,39.113447",
	"geo_location": {
		"longitude": 117.169884,
		"latitude": 39.113447
	},
	"geo_point": {
		"longitude": 117.169884,
		"latitude": 39.113447
	}
}, {
	"name": "天津科技大学",
	"province_name": "天津市",
	"city_name": "天津市",
	"district_name": "滨海新区",
	"address": "天津市河西区大沽南路1038号",
	"ad_code": "120116",
	"type": "普通本科",
	"location": "117.697591,39.089363",
	"geo_location": {
		"longitude": 117.697591,
		"latitude": 39.089363
	},
	"geo_point": {
		"longitude": 117.697591,
		"latitude": 39.089363
	}
}, {
	"name": "天津工业大学",
	"province_name": "天津市",
	"city_name": "天津市",
	"district_name": "北辰区",
	"address": "天津市西青区宾水西道399号",
	"ad_code": "120113",
	"type": "普通本科",
	"location": "117.058447,39.238504",
	"geo_location": {
		"longitude": 117.058447,
		"latitude": 39.238504
	},
	"geo_point": {
		"longitude": 117.058447,
		"latitude": 39.238504
	}
}, {
	"name": "中国民航大学",
	"province_name": "天津市",
	"city_name": "天津市",
	"district_name": "东丽区",
	"address": "天津市东丽区津北公路2898号",
	"ad_code": "120110",
	"type": "普通本科",
	"location": "117.352300,39.109123",
	"geo_location": {
		"longitude": 117.3523,
		"latitude": 39.109123
	},
	"geo_point": {
		"longitude": 117.3523,
		"latitude": 39.109123
	}
}, {
	"name": "天津理工大学",
	"province_name": "天津市",
	"city_name": "天津市",
	"district_name": "西青区",
	"address": "天津市西青区宾水西道391号",
	"ad_code": "120111",
	"type": "普通本科",
	"location": "117.140299,39.061907",
	"geo_location": {
		"longitude": 117.140299,
		"latitude": 39.061907
	},
	"geo_point": {
		"longitude": 117.140299,
		"latitude": 39.061907
	}
}, {
	"name": "天津农学院",
	"province_name": "天津市",
	"city_name": "天津市",
	"district_name": "西青区",
	"address": "天津市西青区津静路22号",
	"ad_code": "120111",
	"type": "普通本科",
	"location": "117.101466,39.091612",
	"geo_location": {
		"longitude": 117.101466,
		"latitude": 39.091612
	},
	"geo_point": {
		"longitude": 117.101466,
		"latitude": 39.091612
	}
}, {
	"name": "天津医科大学",
	"province_name": "天津市",
	"city_name": "天津市",
	"district_name": "和平区",
	"address": "天津市和平区气象台路22号",
	"ad_code": "120101",
	"type": "普通本科",
	"location": "117.185492,39.109119",
	"geo_location": {
		"longitude": 117.185492,
		"latitude": 39.109119
	},
	"geo_point": {
		"longitude": 117.185492,
		"latitude": 39.109119
	}
}, {
	"name": "天津中医药大学",
	"province_name": "天津市",
	"city_name": "天津市",
	"district_name": "南开区",
	"address": "天津市静海区团泊新城西区鄱阳湖路10号",
	"ad_code": "120104",
	"type": "普通本科",
	"location": "117.166100,39.118152",
	"geo_location": {
		"longitude": 117.1661,
		"latitude": 39.118152
	},
	"geo_point": {
		"longitude": 117.1661,
		"latitude": 39.118152
	}
}, {
	"name": "天津师范大学",
	"province_name": "天津市",
	"city_name": "天津市",
	"district_name": "西青区",
	"address": "天津市西青区宾水西道393号",
	"ad_code": "120111",
	"type": "普通本科",
	"location": "117.120394,39.056932",
	"geo_location": {
		"longitude": 117.120394,
		"latitude": 39.056932
	},
	"geo_point": {
		"longitude": 117.120394,
		"latitude": 39.056932
	}
}, {
	"name": "天津职业技术师范大学",
	"province_name": "天津市",
	"city_name": "天津市",
	"district_name": "津南区",
	"address": "天津市河西区大沽南路1310号",
	"ad_code": "120112",
	"type": "普通本科",
	"location": "117.299122,39.055274",
	"geo_location": {
		"longitude": 117.299122,
		"latitude": 39.055274
	},
	"geo_point": {
		"longitude": 117.299122,
		"latitude": 39.055274
	}
}, {
	"name": "天津外国语大学",
	"province_name": "天津市",
	"city_name": "天津市",
	"district_name": "河西区",
	"address": "天津市河西区马场道117号",
	"ad_code": "120103",
	"type": "普通本科",
	"location": "117.211191,39.106708",
	"geo_location": {
		"longitude": 117.211191,
		"latitude": 39.106708
	},
	"geo_point": {
		"longitude": 117.211191,
		"latitude": 39.106708
	}
}, {
	"name": "天津商业大学",
	"province_name": "天津市",
	"city_name": "天津市",
	"district_name": "北辰区",
	"address": "天津市北辰区光荣道409号",
	"ad_code": "120113",
	"type": "普通本科",
	"location": "117.125005,39.180739",
	"geo_location": {
		"longitude": 117.125005,
		"latitude": 39.180739
	},
	"geo_point": {
		"longitude": 117.125005,
		"latitude": 39.180739
	}
}, {
	"name": "天津财经大学",
	"province_name": "天津市",
	"city_name": "天津市",
	"district_name": "津南区",
	"address": "天津市河西区珠江道25号",
	"ad_code": "120112",
	"type": "普通本科",
	"location": "117.278442,39.061219",
	"geo_location": {
		"longitude": 117.278442,
		"latitude": 39.061219
	},
	"geo_point": {
		"longitude": 117.278442,
		"latitude": 39.061219
	}
}, {
	"name": "天津体育学院",
	"province_name": "天津市",
	"city_name": "天津市",
	"district_name": "河西区",
	"address": "天津市静海区团泊新城西区东海道16号",
	"ad_code": "120103",
	"type": "普通本科",
	"location": "117.185425,39.073258",
	"geo_location": {
		"longitude": 117.185425,
		"latitude": 39.073258
	},
	"geo_point": {
		"longitude": 117.185425,
		"latitude": 39.073258
	}
}, {
	"name": "天津音乐学院",
	"province_name": "天津市",
	"city_name": "天津市",
	"district_name": "河东区",
	"address": "天津市河东区十一经路57号",
	"ad_code": "120102",
	"type": "普通本科",
	"location": "117.229405,39.123825",
	"geo_location": {
		"longitude": 117.229405,
		"latitude": 39.123825
	},
	"geo_point": {
		"longitude": 117.229405,
		"latitude": 39.123825
	}
}, {
	"name": "天津美术学院",
	"province_name": "天津市",
	"city_name": "天津市",
	"district_name": "河北区",
	"address": "天津市河北区天纬路4号",
	"ad_code": "120105",
	"type": "普通本科",
	"location": "117.197277,39.163464",
	"geo_location": {
		"longitude": 117.197277,
		"latitude": 39.163464
	},
	"geo_point": {
		"longitude": 117.197277,
		"latitude": 39.163464
	}
}, {
	"name": "河北大学",
	"province_name": "河北省",
	"city_name": "保定市",
	"district_name": "莲池区",
	"address": "校本部：河北省保定市五四东路180号;新校区：河北省保定市七一东路2666号",
	"ad_code": "130606",
	"type": "普通本科",
	"location": "115.517997,38.871833",
	"geo_location": {
		"longitude": 115.517997,
		"latitude": 38.871833
	},
	"geo_point": {
		"longitude": 115.517997,
		"latitude": 38.871833
	}
}, {
	"name": "河北工程大学",
	"province_name": "河北省",
	"city_name": "邯郸市",
	"district_name": "邯山区",
	"address": "河北省邯郸经济技术开发区太极路19号",
	"ad_code": "130402",
	"type": "普通本科",
	"location": "114.503388,36.571577",
	"geo_location": {
		"longitude": 114.503388,
		"latitude": 36.571577
	},
	"geo_point": {
		"longitude": 114.503388,
		"latitude": 36.571577
	}
}, {
	"name": "河北地质大学",
	"province_name": "河北省",
	"city_name": "石家庄市",
	"district_name": "裕华区",
	"address": "主校区：石家庄市槐安东路136号,北校区：石家庄市景源街26号",
	"ad_code": "130108",
	"type": "普通本科",
	"location": "114.528090,38.020461",
	"geo_location": {
		"longitude": 114.52809,
		"latitude": 38.020461
	},
	"geo_point": {
		"longitude": 114.52809,
		"latitude": 38.020461
	}
}, {
	"name": "华北水利水电大学",
	"province_name": "河南省",
	"city_name": "郑州市",
	"district_name": "金水区",
	"address": "河南省郑州市金水东路136号",
	"ad_code": "410105",
	"type": "普通本科",
	"location": "113.795753,34.782760",
	"geo_location": {
		"longitude": 113.795753,
		"latitude": 34.78276
	},
	"geo_point": {
		"longitude": 113.795753,
		"latitude": 34.78276
	}
}, {
	"name": "河北工业大学",
	"province_name": "天津市",
	"city_name": "天津市",
	"district_name": "红桥区",
	"address": "天津市北辰区西平道5340号",
	"ad_code": "120106",
	"type": "普通本科",
	"location": "117.170940,39.179079",
	"geo_location": {
		"longitude": 117.17094,
		"latitude": 39.179079
	},
	"geo_point": {
		"longitude": 117.17094,
		"latitude": 39.179079
	}
}, {
	"name": "华北理工大学",
	"province_name": "河北省",
	"city_name": "唐山市",
	"district_name": "曹妃甸区",
	"address": "河北省唐山市曹妃甸新城渤海大道21号",
	"ad_code": "130209",
	"type": "普通本科",
	"location": "118.592765,39.204895",
	"geo_location": {
		"longitude": 118.592765,
		"latitude": 39.204895
	},
	"geo_point": {
		"longitude": 118.592765,
		"latitude": 39.204895
	}
}, {
	"name": "河北科技大学",
	"province_name": "河北省",
	"city_name": "石家庄市",
	"district_name": "长安区",
	"address": "河北省石家庄市裕翔街26号",
	"ad_code": "130102",
	"type": "普通本科",
	"location": "114.534811,38.046379",
	"geo_location": {
		"longitude": 114.534811,
		"latitude": 38.046379
	},
	"geo_point": {
		"longitude": 114.534811,
		"latitude": 38.046379
	}
}, {
	"name": "河北建筑工程学院",
	"province_name": "河北省",
	"city_name": "张家口市",
	"district_name": "桥东区",
	"address": "河北省张家口市朝阳西大街13号",
	"ad_code": "130702",
	"type": "普通本科",
	"location": "114.897138,40.755865",
	"geo_location": {
		"longitude": 114.897138,
		"latitude": 40.755865
	},
	"geo_point": {
		"longitude": 114.897138,
		"latitude": 40.755865
	}
}, {
	"name": "河北水利电力学院",
	"province_name": "河北省",
	"city_name": "沧州市",
	"district_name": "运河区",
	"address": "河北省沧州市重庆路1号",
	"ad_code": "130903",
	"type": "普通本科",
	"location": "116.804969,38.295310",
	"geo_location": {
		"longitude": 116.804969,
		"latitude": 38.29531
	},
	"geo_point": {
		"longitude": 116.804969,
		"latitude": 38.29531
	}
}, {
	"name": "河北农业大学",
	"province_name": "河北省",
	"city_name": "保定市",
	"district_name": "莲池区",
	"address": "河北省保定市灵雨寺街289号",
	"ad_code": "130606",
	"type": "普通本科",
	"location": "115.484360,38.850340",
	"geo_location": {
		"longitude": 115.48436,
		"latitude": 38.85034
	},
	"geo_point": {
		"longitude": 115.48436,
		"latitude": 38.85034
	}
}, {
	"name": "河北医科大学",
	"province_name": "河北省",
	"city_name": "石家庄市",
	"district_name": "长安区",
	"address": "中山校区：河北省石家庄市中山东路361号,建华校区：河北省石家庄市建华南大街309号",
	"ad_code": "130102",
	"type": "普通本科",
	"location": "114.534811,38.046379",
	"geo_location": {
		"longitude": 114.534811,
		"latitude": 38.046379
	},
	"geo_point": {
		"longitude": 114.534811,
		"latitude": 38.046379
	}
}, {
	"name": "河北北方学院",
	"province_name": "河北省",
	"city_name": "张家口市",
	"district_name": "桥东区",
	"address": "河北省张家口市高新区钻石南路11号",
	"ad_code": "130702",
	"type": "普通本科",
	"location": "114.878049,40.770992",
	"geo_location": {
		"longitude": 114.878049,
		"latitude": 40.770992
	},
	"geo_point": {
		"longitude": 114.878049,
		"latitude": 40.770992
	}
}, {
	"name": "承德医学院",
	"province_name": "河北省",
	"city_name": "承德市",
	"district_name": "双桥区",
	"address": "河北省承德市双桥区安远路",
	"ad_code": "130802",
	"type": "普通本科",
	"location": "117.956531,41.033113",
	"geo_location": {
		"longitude": 117.956531,
		"latitude": 41.033113
	},
	"geo_point": {
		"longitude": 117.956531,
		"latitude": 41.033113
	}
}, {
	"name": "河北师范大学",
	"province_name": "河北省",
	"city_name": "石家庄市",
	"district_name": "裕华区",
	"address": "河北省石家庄市南二环东路20号",
	"ad_code": "130108",
	"type": "普通本科",
	"location": "114.517366,37.994022",
	"geo_location": {
		"longitude": 114.517366,
		"latitude": 37.994022
	},
	"geo_point": {
		"longitude": 114.517366,
		"latitude": 37.994022
	}
}, {
	"name": "保定学院",
	"province_name": "河北省",
	"city_name": "保定市",
	"district_name": "莲池区",
	"address": "河北省保定市七一东路3027号",
	"ad_code": "130606",
	"type": "普通本科",
	"location": "115.578289,38.880311",
	"geo_location": {
		"longitude": 115.578289,
		"latitude": 38.880311
	},
	"geo_point": {
		"longitude": 115.578289,
		"latitude": 38.880311
	}
}, {
	"name": "河北民族师范学院",
	"province_name": "河北省",
	"city_name": "承德市",
	"district_name": "双桥区",
	"address": "河北省承德市高新区学院路西2号",
	"ad_code": "130802",
	"type": "普通本科",
	"location": "117.958434,40.892328",
	"geo_location": {
		"longitude": 117.958434,
		"latitude": 40.892328
	},
	"geo_point": {
		"longitude": 117.958434,
		"latitude": 40.892328
	}
}, {
	"name": "唐山师范学院",
	"province_name": "河北省",
	"city_name": "唐山市",
	"district_name": "路北区",
	"address": "校本部大学道校区：河北省唐山市建设北路156号,校本部学院路校区：河北省唐山市学院路41号",
	"ad_code": "130203",
	"type": "普通本科",
	"location": "118.173106,39.673655",
	"geo_location": {
		"longitude": 118.173106,
		"latitude": 39.673655
	},
	"geo_point": {
		"longitude": 118.173106,
		"latitude": 39.673655
	}
}, {
	"name": "廊坊师范学院",
	"province_name": "河北省",
	"city_name": "廊坊市",
	"district_name": "安次区",
	"address": "东校区：河北省廊坊市爱民西道100号 ,西校区：河北省廊坊市固安县城东",
	"ad_code": "131002",
	"type": "普通本科",
	"location": "116.670060,39.524921",
	"geo_location": {
		"longitude": 116.67006,
		"latitude": 39.524921
	},
	"geo_point": {
		"longitude": 116.67006,
		"latitude": 39.524921
	}
}, {
	"name": "衡水学院",
	"province_name": "河北省",
	"city_name": "衡水市",
	"district_name": "桃城区",
	"address": "河北省衡水市和平西路1088号",
	"ad_code": "131102",
	"type": "普通本科",
	"location": "115.661614,37.742653",
	"geo_location": {
		"longitude": 115.661614,
		"latitude": 37.742653
	},
	"geo_point": {
		"longitude": 115.661614,
		"latitude": 37.742653
	}
}, {
	"name": "石家庄学院",
	"province_name": "河北省",
	"city_name": "石家庄市",
	"district_name": "裕华区",
	"address": "北校区：石家庄高新技术产业开发区长江大道6号,南校区：石家庄高新技术产业开发区珠峰大街288号",
	"ad_code": "130108",
	"type": "普通本科",
	"location": "114.604890,38.035943",
	"geo_location": {
		"longitude": 114.60489,
		"latitude": 38.035943
	},
	"geo_point": {
		"longitude": 114.60489,
		"latitude": 38.035943
	}
}, {
	"name": "邯郸学院",
	"province_name": "河北省",
	"city_name": "邯郸市",
	"district_name": "邯山区",
	"address": "邯郸学院本部：河北省邯郸市学院北路530号,邯郸学院大名分院：河北省大名县京府大街43号",
	"ad_code": "130402",
	"type": "普通本科",
	"location": "114.510107,36.577942",
	"geo_location": {
		"longitude": 114.510107,
		"latitude": 36.577942
	},
	"geo_point": {
		"longitude": 114.510107,
		"latitude": 36.577942
	}
}, {
	"name": "邢台学院",
	"province_name": "河北省",
	"city_name": "邢台市",
	"district_name": "襄都区",
	"address": "邢台学院：河北省邢台市桥东区泉北东大街88号,邢台学院机电工程学院校区：河北省邢台市桥西区泉北西大街1169号",
	"ad_code": "130502",
	"type": "普通本科",
	"location": "114.508051,37.087588",
	"geo_location": {
		"longitude": 114.508051,
		"latitude": 37.087588
	},
	"geo_point": {
		"longitude": 114.508051,
		"latitude": 37.087588
	}
}, {
	"name": "沧州师范学院",
	"province_name": "河北省",
	"city_name": "沧州市",
	"district_name": "运河区",
	"address": "河北省沧州市运河区青海南大道16号",
	"ad_code": "130903",
	"type": "普通本科",
	"location": "116.783943,38.285245",
	"geo_location": {
		"longitude": 116.783943,
		"latitude": 38.285245
	},
	"geo_point": {
		"longitude": 116.783943,
		"latitude": 38.285245
	}
}, {
	"name": "石家庄铁道大学",
	"province_name": "河北省",
	"city_name": "石家庄市",
	"district_name": "长安区",
	"address": "石家庄市北二环东路17号",
	"ad_code": "130102",
	"type": "普通本科",
	"location": "114.508511,38.083381",
	"geo_location": {
		"longitude": 114.508511,
		"latitude": 38.083381
	},
	"geo_point": {
		"longitude": 114.508511,
		"latitude": 38.083381
	}
}, {
	"name": "山西大学",
	"province_name": "山西省",
	"city_name": "太原市",
	"district_name": "小店区",
	"address": "太原市坞城路92号山西大学教务处;山西省太原市杏花岭区大东关红沟南街36号",
	"ad_code": "140105",
	"type": "普通本科",
	"location": "112.588507,37.801171",
	"geo_location": {
		"longitude": 112.588507,
		"latitude": 37.801171
	},
	"geo_point": {
		"longitude": 112.588507,
		"latitude": 37.801171
	}
}, {
	"name": "太原科技大学",
	"province_name": "山西省",
	"city_name": "太原市",
	"district_name": "万柏林区",
	"address": "太原市万柏林区窊流路66号",
	"ad_code": "140109",
	"type": "普通本科",
	"location": "112.492633,37.875528",
	"geo_location": {
		"longitude": 112.492633,
		"latitude": 37.875528
	},
	"geo_point": {
		"longitude": 112.492633,
		"latitude": 37.875528
	}
}, {
	"name": "中北大学",
	"province_name": "山西省",
	"city_name": "太原市",
	"district_name": "尖草坪区",
	"address": "山西省太原市学院路3号",
	"ad_code": "140108",
	"type": "普通本科",
	"location": "112.447509,38.015117",
	"geo_location": {
		"longitude": 112.447509,
		"latitude": 38.015117
	},
	"geo_point": {
		"longitude": 112.447509,
		"latitude": 38.015117
	}
}, {
	"name": "太原理工大学",
	"province_name": "山西省",
	"city_name": "太原市",
	"district_name": "万柏林区",
	"address": "山西省太原市迎泽西大街79号",
	"ad_code": "140109",
	"type": "普通本科",
	"location": "112.518158,37.859976",
	"geo_location": {
		"longitude": 112.518158,
		"latitude": 37.859976
	},
	"geo_point": {
		"longitude": 112.518158,
		"latitude": 37.859976
	}
}, {
	"name": "山西农业大学",
	"province_name": "山西省",
	"city_name": "晋中市",
	"district_name": "太谷区",
	"address": "山西省晋中市太谷县",
	"ad_code": "140703",
	"type": "普通本科",
	"location": "112.583716,37.423184",
	"geo_location": {
		"longitude": 112.583716,
		"latitude": 37.423184
	},
	"geo_point": {
		"longitude": 112.583716,
		"latitude": 37.423184
	}
}, {
	"name": "山西医科大学",
	"province_name": "山西省",
	"city_name": "太原市",
	"district_name": "迎泽区",
	"address": "川至校区：山西省太原市杏花岭区五一路382号,迎泽校区：山西省太原市迎泽区新建南路56号,中都校区：山西省晋中市榆次区大学街98号",
	"ad_code": "140106",
	"type": "普通本科",
	"location": "112.554289,37.850181",
	"geo_location": {
		"longitude": 112.554289,
		"latitude": 37.850181
	},
	"geo_point": {
		"longitude": 112.554289,
		"latitude": 37.850181
	}
}, {
	"name": "长治医学院",
	"province_name": "山西省",
	"city_name": "长治市",
	"district_name": "潞州区",
	"address": "山西省长治市解放东街161号",
	"ad_code": "140403",
	"type": "普通本科",
	"location": "113.118225,36.171339",
	"geo_location": {
		"longitude": 113.118225,
		"latitude": 36.171339
	},
	"geo_point": {
		"longitude": 113.118225,
		"latitude": 36.171339
	}
}, {
	"name": "山西师范大学",
	"province_name": "山西省",
	"city_name": "临汾市",
	"district_name": "尧都区",
	"address": "山西省临汾市贡院街1号;体育学院：山西省临汾市尧都区解放东路355号",
	"ad_code": "141002",
	"type": "普通本科",
	"location": "111.506547,36.080752",
	"geo_location": {
		"longitude": 111.506547,
		"latitude": 36.080752
	},
	"geo_point": {
		"longitude": 111.506547,
		"latitude": 36.080752
	}
}, {
	"name": "太原师范学院",
	"province_name": "山西省",
	"city_name": "太原市",
	"district_name": "小店区",
	"address": "山西省晋中市榆次区大学街319号",
	"ad_code": "140105",
	"type": "普通本科",
	"location": "112.547000,37.834500",
	"geo_location": {
		"longitude": 112.547,
		"latitude": 37.8345
	},
	"geo_point": {
		"longitude": 112.547,
		"latitude": 37.8345
	}
}, {
	"name": "山西大同大学",
	"province_name": "山西省",
	"city_name": "大同市",
	"district_name": "平城区",
	"address": "御东校区：山西省大同市兴云街;新平旺校区：山西省大同市云冈区（原矿区）平泉路52号",
	"ad_code": "140213",
	"type": "普通本科",
	"location": "113.349610,40.092940",
	"geo_location": {
		"longitude": 113.34961,
		"latitude": 40.09294
	},
	"geo_point": {
		"longitude": 113.34961,
		"latitude": 40.09294
	}
}, {
	"name": "晋中学院",
	"province_name": "山西省",
	"city_name": "晋中市",
	"district_name": "榆次区",
	"address": "山西省晋中市榆次区文华街199号",
	"ad_code": "140702",
	"type": "普通本科",
	"location": "112.715163,37.740271",
	"geo_location": {
		"longitude": 112.715163,
		"latitude": 37.740271
	},
	"geo_point": {
		"longitude": 112.715163,
		"latitude": 37.740271
	}
}, {
	"name": "长治学院",
	"province_name": "山西省",
	"city_name": "长治市",
	"district_name": "潞州区",
	"address": "山西省长治市保宁门东街73号（北校区）,山西省长治市东环路中段96号（南校区）",
	"ad_code": "140403",
	"type": "普通本科",
	"location": "113.136696,36.208809",
	"geo_location": {
		"longitude": 113.136696,
		"latitude": 36.208809
	},
	"geo_point": {
		"longitude": 113.136696,
		"latitude": 36.208809
	}
}, {
	"name": "运城学院",
	"province_name": "山西省",
	"city_name": "运城市",
	"district_name": "盐湖区",
	"address": "山西省运城市复旦西街1155号运城学院",
	"ad_code": "140802",
	"type": "普通本科",
	"location": "110.932027,35.123960",
	"geo_location": {
		"longitude": 110.932027,
		"latitude": 35.12396
	},
	"geo_point": {
		"longitude": 110.932027,
		"latitude": 35.12396
	}
}, {
	"name": "忻州师范学院",
	"province_name": "山西省",
	"city_name": "忻州市",
	"district_name": "忻府区",
	"address": "主校区：山西省忻州市和平西街10号;南校区：山西省忻州市五台山南路忻师南巷10号",
	"ad_code": "140902",
	"type": "普通本科",
	"location": "112.726510,38.431883",
	"geo_location": {
		"longitude": 112.72651,
		"latitude": 38.431883
	},
	"geo_point": {
		"longitude": 112.72651,
		"latitude": 38.431883
	}
}, {
	"name": "山西财经大学",
	"province_name": "山西省",
	"city_name": "太原市",
	"district_name": "小店区",
	"address": "坞城校区：山西省太原市坞城路140号,迎泽校区：山西省太原市南内环街135号,平阳校区：山西省太原市平阳路西二巷25号",
	"ad_code": "140105",
	"type": "普通本科",
	"location": "112.586327,37.786757",
	"geo_location": {
		"longitude": 112.586327,
		"latitude": 37.786757
	},
	"geo_point": {
		"longitude": 112.586327,
		"latitude": 37.786757
	}
}, {
	"name": "内蒙古大学",
	"province_name": "内蒙古自治区",
	"city_name": "呼和浩特市",
	"district_name": "赛罕区",
	"address": "北校区：呼和浩特市赛罕区大学西街235号,南校区：呼和浩特市玉泉区昭君路24号,满洲里校区：满洲里市华埠大街1号",
	"ad_code": "150105",
	"type": "普通本科",
	"location": "111.690726,40.812259",
	"geo_location": {
		"longitude": 111.690726,
		"latitude": 40.812259
	},
	"geo_point": {
		"longitude": 111.690726,
		"latitude": 40.812259
	}
}, {
	"name": "内蒙古科技大学",
	"province_name": "内蒙古自治区",
	"city_name": "包头市",
	"district_name": "昆都仑区",
	"address": "内蒙古包头市昆都仑区阿尔丁大街7号",
	"ad_code": "150203",
	"type": "普通本科",
	"location": "109.832975,40.620558",
	"geo_location": {
		"longitude": 109.832975,
		"latitude": 40.620558
	},
	"geo_point": {
		"longitude": 109.832975,
		"latitude": 40.620558
	}
}, {
	"name": "内蒙古工业大学",
	"province_name": "内蒙古自治区",
	"city_name": "呼和浩特市",
	"district_name": "新城区",
	"address": "内蒙古自治区呼和浩特市新城区爱民街49号",
	"ad_code": "150102",
	"type": "普通本科",
	"location": "111.684173,40.847165",
	"geo_location": {
		"longitude": 111.684173,
		"latitude": 40.847165
	},
	"geo_point": {
		"longitude": 111.684173,
		"latitude": 40.847165
	}
}, {
	"name": "内蒙古农业大学",
	"province_name": "内蒙古自治区",
	"city_name": "呼和浩特市",
	"district_name": "赛罕区",
	"address": "内蒙古呼和浩特市赛罕区昭乌达路306号",
	"ad_code": "150105",
	"type": "普通本科",
	"location": "111.704029,40.805411",
	"geo_location": {
		"longitude": 111.704029,
		"latitude": 40.805411
	},
	"geo_point": {
		"longitude": 111.704029,
		"latitude": 40.805411
	}
}, {
	"name": "内蒙古医科大学",
	"province_name": "内蒙古自治区",
	"city_name": "呼和浩特市",
	"district_name": "土默特左旗",
	"address": "内蒙古呼和浩特市金山开发区",
	"ad_code": "150121",
	"type": "普通本科",
	"location": "111.438124,40.743445",
	"geo_location": {
		"longitude": 111.438124,
		"latitude": 40.743445
	},
	"geo_point": {
		"longitude": 111.438124,
		"latitude": 40.743445
	}
}, {
	"name": "内蒙古师范大学",
	"province_name": "内蒙古自治区",
	"city_name": "呼和浩特市",
	"district_name": "和林格尔县",
	"address": "赛罕校区：呼和浩特市昭乌达路81号;盛乐校区：呼和浩特市和林格尔盛乐经济园区",
	"ad_code": "150123",
	"type": "普通本科",
	"location": "111.788319,40.491279",
	"geo_location": {
		"longitude": 111.788319,
		"latitude": 40.491279
	},
	"geo_point": {
		"longitude": 111.788319,
		"latitude": 40.491279
	}
}, {
	"name": "内蒙古民族大学",
	"province_name": "内蒙古自治区",
	"city_name": "通辽市",
	"district_name": "科尔沁区",
	"address": "内蒙古通辽市科尔沁区霍林河大街（西）536号",
	"ad_code": "150502",
	"type": "普通本科",
	"location": "122.259441,43.624103",
	"geo_location": {
		"longitude": 122.259441,
		"latitude": 43.624103
	},
	"geo_point": {
		"longitude": 122.259441,
		"latitude": 43.624103
	}
}, {
	"name": "赤峰学院",
	"province_name": "内蒙古自治区",
	"city_name": "赤峰市",
	"district_name": "红山区",
	"address": "内蒙古自治区赤峰市红山区迎宾路1号",
	"ad_code": "150402",
	"type": "普通本科",
	"location": "118.917203,42.241972",
	"geo_location": {
		"longitude": 118.917203,
		"latitude": 42.241972
	},
	"geo_point": {
		"longitude": 118.917203,
		"latitude": 42.241972
	}
}, {
	"name": "内蒙古财经大学",
	"province_name": "内蒙古自治区",
	"city_name": "呼和浩特市",
	"district_name": "回民区",
	"address": "内蒙古呼和浩特市回民区北二环路185号",
	"ad_code": "150103",
	"type": "普通本科",
	"location": "111.636621,40.859099",
	"geo_location": {
		"longitude": 111.636621,
		"latitude": 40.859099
	},
	"geo_point": {
		"longitude": 111.636621,
		"latitude": 40.859099
	}
}, {
	"name": "辽宁大学",
	"province_name": "辽宁省",
	"city_name": "沈阳市",
	"district_name": "皇姑区",
	"address": "沈阳崇山校区：沈阳市皇姑区崇山中路66号;沈阳蒲河校区：沈阳市沈北新区道义南大街58号",
	"ad_code": "210105",
	"type": "普通本科",
	"location": "123.404758,41.833936",
	"geo_location": {
		"longitude": 123.404758,
		"latitude": 41.833936
	},
	"geo_point": {
		"longitude": 123.404758,
		"latitude": 41.833936
	}
}, {
	"name": "大连理工大学",
	"province_name": "辽宁省",
	"city_name": "大连市",
	"district_name": "甘井子区",
	"address": "辽宁省大连市甘井子区凌工路2号",
	"ad_code": "210211",
	"type": "普通本科",
	"location": "121.529015,38.880379",
	"geo_location": {
		"longitude": 121.529015,
		"latitude": 38.880379
	},
	"geo_point": {
		"longitude": 121.529015,
		"latitude": 38.880379
	}
}, {
	"name": "沈阳工业大学",
	"province_name": "辽宁省",
	"city_name": "沈阳市",
	"district_name": "铁西区",
	"address": "辽宁省沈阳经济技术开发区沈辽西路111号",
	"ad_code": "210106",
	"type": "普通本科",
	"location": "123.251658,41.737484",
	"geo_location": {
		"longitude": 123.251658,
		"latitude": 41.737484
	},
	"geo_point": {
		"longitude": 123.251658,
		"latitude": 41.737484
	}
}, {
	"name": "沈阳航空航天大学",
	"province_name": "辽宁省",
	"city_name": "沈阳市",
	"district_name": "沈北新区",
	"address": "辽宁省沈阳市沈北新区道义南大街37号",
	"ad_code": "210113",
	"type": "普通本科",
	"location": "123.407899,41.926975",
	"geo_location": {
		"longitude": 123.407899,
		"latitude": 41.926975
	},
	"geo_point": {
		"longitude": 123.407899,
		"latitude": 41.926975
	}
}, {
	"name": "沈阳理工大学",
	"province_name": "辽宁省",
	"city_name": "沈阳市",
	"district_name": "浑南区",
	"address": "辽宁省沈阳市浑南区南屏中路6号",
	"ad_code": "210112",
	"type": "普通本科",
	"location": "123.493776,41.727830",
	"geo_location": {
		"longitude": 123.493776,
		"latitude": 41.72783
	},
	"geo_point": {
		"longitude": 123.493776,
		"latitude": 41.72783
	}
}, {
	"name": "东北大学",
	"province_name": "辽宁省",
	"city_name": "沈阳市",
	"district_name": "和平区",
	"address": "辽宁省沈阳市和平区文化路三巷11号",
	"ad_code": "210102",
	"type": "普通本科",
	"location": "123.418420,41.765290",
	"geo_location": {
		"longitude": 123.41842,
		"latitude": 41.76529
	},
	"geo_point": {
		"longitude": 123.41842,
		"latitude": 41.76529
	}
}, {
	"name": "辽宁科技大学",
	"province_name": "辽宁省",
	"city_name": "鞍山市",
	"district_name": "立山区",
	"address": "辽宁省鞍山市高新区千山中路185—1号",
	"ad_code": "210304",
	"type": "普通本科",
	"location": "123.060512,41.103925",
	"geo_location": {
		"longitude": 123.060512,
		"latitude": 41.103925
	},
	"geo_point": {
		"longitude": 123.060512,
		"latitude": 41.103925
	}
}, {
	"name": "辽宁工程技术大学",
	"province_name": "辽宁省",
	"city_name": "阜新市",
	"district_name": "细河区",
	"address": "辽宁省阜新市中华路47号",
	"ad_code": "210911",
	"type": "普通本科",
	"location": "121.662001,42.021811",
	"geo_location": {
		"longitude": 121.662001,
		"latitude": 42.021811
	},
	"geo_point": {
		"longitude": 121.662001,
		"latitude": 42.021811
	}
}, {
	"name": "辽宁石油化工大学",
	"province_name": "辽宁省",
	"city_name": "抚顺市",
	"district_name": "望花区",
	"address": "辽宁省抚顺市望花区丹东路西段一号",
	"ad_code": "210404",
	"type": "普通本科",
	"location": "123.792807,41.858605",
	"geo_location": {
		"longitude": 123.792807,
		"latitude": 41.858605
	},
	"geo_point": {
		"longitude": 123.792807,
		"latitude": 41.858605
	}
}, {
	"name": "沈阳化工大学",
	"province_name": "辽宁省",
	"city_name": "沈阳市",
	"district_name": "铁西区",
	"address": "沈阳经济技术开发区11号街",
	"ad_code": "210106",
	"type": "普通本科",
	"location": "123.234668,41.746311",
	"geo_location": {
		"longitude": 123.234668,
		"latitude": 41.746311
	},
	"geo_point": {
		"longitude": 123.234668,
		"latitude": 41.746311
	}
}, {
	"name": "大连交通大学",
	"province_name": "辽宁省",
	"city_name": "大连市",
	"district_name": "沙河口区",
	"address": "辽宁省大连市沙河口区黄河路794号",
	"ad_code": "210204",
	"type": "普通本科",
	"location": "121.586442,38.924206",
	"geo_location": {
		"longitude": 121.586442,
		"latitude": 38.924206
	},
	"geo_point": {
		"longitude": 121.586442,
		"latitude": 38.924206
	}
}, {
	"name": "大连海事大学",
	"province_name": "辽宁省",
	"city_name": "大连市",
	"district_name": "甘井子区",
	"address": "辽宁省大连市凌海路1号",
	"ad_code": "210211",
	"type": "普通本科",
	"location": "121.529038,38.869782",
	"geo_location": {
		"longitude": 121.529038,
		"latitude": 38.869782
	},
	"geo_point": {
		"longitude": 121.529038,
		"latitude": 38.869782
	}
}, {
	"name": "大连工业大学",
	"province_name": "辽宁省",
	"city_name": "大连市",
	"district_name": "甘井子区",
	"address": "辽宁省大连市甘井子区轻工苑1号",
	"ad_code": "210211",
	"type": "普通本科",
	"location": "121.526276,38.975506",
	"geo_location": {
		"longitude": 121.526276,
		"latitude": 38.975506
	},
	"geo_point": {
		"longitude": 121.526276,
		"latitude": 38.975506
	}
}, {
	"name": "沈阳建筑大学",
	"province_name": "辽宁省",
	"city_name": "沈阳市",
	"district_name": "浑南区",
	"address": "沈阳市浑南区浑南东路9号",
	"ad_code": "210112",
	"type": "普通本科",
	"location": "123.515950,41.743230",
	"geo_location": {
		"longitude": 123.51595,
		"latitude": 41.74323
	},
	"geo_point": {
		"longitude": 123.51595,
		"latitude": 41.74323
	}
}, {
	"name": "辽宁工业大学",
	"province_name": "辽宁省",
	"city_name": "锦州市",
	"district_name": "古塔区",
	"address": "辽宁省锦州市古塔区士英街169号",
	"ad_code": "210702",
	"type": "普通本科",
	"location": "121.123567,41.144881",
	"geo_location": {
		"longitude": 121.123567,
		"latitude": 41.144881
	},
	"geo_point": {
		"longitude": 121.123567,
		"latitude": 41.144881
	}
}, {
	"name": "沈阳农业大学",
	"province_name": "辽宁省",
	"city_name": "沈阳市",
	"district_name": "沈河区",
	"address": "辽宁省沈阳市沈河区东陵路120号",
	"ad_code": "210103",
	"type": "普通本科",
	"location": "123.570051,41.826563",
	"geo_location": {
		"longitude": 123.570051,
		"latitude": 41.826563
	},
	"geo_point": {
		"longitude": 123.570051,
		"latitude": 41.826563
	}
}, {
	"name": "大连海洋大学",
	"province_name": "辽宁省",
	"city_name": "大连市",
	"district_name": "沙河口区",
	"address": "黄海校区：辽宁省大连市沙河口区黑石礁街52号;渤海校区：辽宁省大连市甘井子区营平路288号",
	"ad_code": "210204",
	"type": "普通本科",
	"location": "121.555454,38.868233",
	"geo_location": {
		"longitude": 121.555454,
		"latitude": 38.868233
	},
	"geo_point": {
		"longitude": 121.555454,
		"latitude": 38.868233
	}
}, {
	"name": "中国医科大学",
	"province_name": "辽宁省",
	"city_name": "沈阳市",
	"district_name": "和平区",
	"address": "辽宁省沈阳市沈北新区蒲河路77号",
	"ad_code": "210102",
	"type": "普通本科",
	"location": "123.411967,41.793880",
	"geo_location": {
		"longitude": 123.411967,
		"latitude": 41.79388
	},
	"geo_point": {
		"longitude": 123.411967,
		"latitude": 41.79388
	}
}, {
	"name": "锦州医科大学",
	"province_name": "辽宁省",
	"city_name": "锦州市",
	"district_name": "古塔区",
	"address": "辽宁省锦州市松坡路三段40号",
	"ad_code": "210702",
	"type": "普通本科",
	"location": "121.142633,41.150041",
	"geo_location": {
		"longitude": 121.142633,
		"latitude": 41.150041
	},
	"geo_point": {
		"longitude": 121.142633,
		"latitude": 41.150041
	}
}, {
	"name": "大连医科大学",
	"province_name": "辽宁省",
	"city_name": "大连市",
	"district_name": "旅顺口区",
	"address": "辽宁省大连市旅顺南路西段9号",
	"ad_code": "210212",
	"type": "普通本科",
	"location": "121.315057,38.804567",
	"geo_location": {
		"longitude": 121.315057,
		"latitude": 38.804567
	},
	"geo_point": {
		"longitude": 121.315057,
		"latitude": 38.804567
	}
}, {
	"name": "辽宁中医药大学",
	"province_name": "辽宁省",
	"city_name": "沈阳市",
	"district_name": "皇姑区",
	"address": "沈阳市皇姑区崇山东路79号",
	"ad_code": "210105",
	"type": "普通本科",
	"location": "123.434537,41.831615",
	"geo_location": {
		"longitude": 123.434537,
		"latitude": 41.831615
	},
	"geo_point": {
		"longitude": 123.434537,
		"latitude": 41.831615
	}
}, {
	"name": "沈阳药科大学",
	"province_name": "辽宁省",
	"city_name": "沈阳市",
	"district_name": "沈河区",
	"address": "沈阳市沈河区文化路103号",
	"ad_code": "210103",
	"type": "普通本科",
	"location": "123.445673,41.768484",
	"geo_location": {
		"longitude": 123.445673,
		"latitude": 41.768484
	},
	"geo_point": {
		"longitude": 123.445673,
		"latitude": 41.768484
	}
}, {
	"name": "沈阳医学院",
	"province_name": "辽宁省",
	"city_name": "沈阳市",
	"district_name": "于洪区",
	"address": "沈阳市黄河北大街146号",
	"ad_code": "210114",
	"type": "普通本科",
	"location": "123.408481,41.888978",
	"geo_location": {
		"longitude": 123.408481,
		"latitude": 41.888978
	},
	"geo_point": {
		"longitude": 123.408481,
		"latitude": 41.888978
	}
}, {
	"name": "辽宁师范大学",
	"province_name": "辽宁省",
	"city_name": "大连市",
	"district_name": "沙河口区",
	"address": "辽宁省大连市沙河口区850号",
	"ad_code": "210204",
	"type": "普通本科",
	"location": "121.563577,38.919842",
	"geo_location": {
		"longitude": 121.563577,
		"latitude": 38.919842
	},
	"geo_point": {
		"longitude": 121.563577,
		"latitude": 38.919842
	}
}, {
	"name": "沈阳师范大学",
	"province_name": "辽宁省",
	"city_name": "沈阳市",
	"district_name": "沈北新区",
	"address": "辽宁省沈阳市皇姑区黄河北大街253号",
	"ad_code": "210113",
	"type": "普通本科",
	"location": "123.412537,41.913624",
	"geo_location": {
		"longitude": 123.412537,
		"latitude": 41.913624
	},
	"geo_point": {
		"longitude": 123.412537,
		"latitude": 41.913624
	}
}, {
	"name": "渤海大学",
	"province_name": "辽宁省",
	"city_name": "锦州市",
	"district_name": "太和区",
	"address": "辽宁省锦州高新技术产业开发区科技路19号",
	"ad_code": "210711",
	"type": "普通本科",
	"location": "121.118160,41.085760",
	"geo_location": {
		"longitude": 121.11816,
		"latitude": 41.08576
	},
	"geo_point": {
		"longitude": 121.11816,
		"latitude": 41.08576
	}
}, {
	"name": "鞍山师范学院",
	"province_name": "辽宁省",
	"city_name": "鞍山市",
	"district_name": "铁东区",
	"address": "辽宁省鞍山市铁东区平安街43号;辽宁省鞍山市千山区千山西路690号",
	"ad_code": "210302",
	"type": "普通本科",
	"location": "122.995967,41.076153",
	"geo_location": {
		"longitude": 122.995967,
		"latitude": 41.076153
	},
	"geo_point": {
		"longitude": 122.995967,
		"latitude": 41.076153
	}
}, {
	"name": "朝阳师范高等专科学校",
	"province_name": "辽宁省",
	"city_name": "朝阳市",
	"district_name": "双塔区",
	"address": "辽宁省朝阳市双塔区龙山街四段966号",
	"ad_code": "211302",
	"type": "专科（高职）",
	"location": "120.429007,41.531460",
	"geo_location": {
		"longitude": 120.429007,
		"latitude": 41.53146
	},
	"geo_point": {
		"longitude": 120.429007,
		"latitude": 41.53146
	}
}, {
	"name": "大连外国语大学",
	"province_name": "辽宁省",
	"city_name": "大连市",
	"district_name": "旅顺口区",
	"address": "大连市旅顺南路西段6号",
	"ad_code": "210212",
	"type": "普通本科",
	"location": "121.309904,38.812218",
	"geo_location": {
		"longitude": 121.309904,
		"latitude": 38.812218
	},
	"geo_point": {
		"longitude": 121.309904,
		"latitude": 38.812218
	}
}, {
	"name": "东北财经大学",
	"province_name": "辽宁省",
	"city_name": "大连市",
	"district_name": "沙河口区",
	"address": "大连市沙河口区尖山街217号",
	"ad_code": "210204",
	"type": "普通本科",
	"location": "121.550210,38.880807",
	"geo_location": {
		"longitude": 121.55021,
		"latitude": 38.880807
	},
	"geo_point": {
		"longitude": 121.55021,
		"latitude": 38.880807
	}
}, {
	"name": "中国刑事警察学院",
	"province_name": "辽宁省",
	"city_name": "沈阳市",
	"district_name": "皇姑区",
	"address": "辽宁省沈阳市塔湾街83号",
	"ad_code": "210105",
	"type": "普通本科",
	"location": "123.381652,41.843740",
	"geo_location": {
		"longitude": 123.381652,
		"latitude": 41.84374
	},
	"geo_point": {
		"longitude": 123.381652,
		"latitude": 41.84374
	}
}, {
	"name": "沈阳体育学院",
	"province_name": "辽宁省",
	"city_name": "沈阳市",
	"district_name": "苏家屯区",
	"address": "沈阳市苏家屯区金钱松东路36号",
	"ad_code": "210111",
	"type": "普通本科",
	"location": "123.388830,41.673295",
	"geo_location": {
		"longitude": 123.38883,
		"latitude": 41.673295
	},
	"geo_point": {
		"longitude": 123.38883,
		"latitude": 41.673295
	}
}, {
	"name": "沈阳音乐学院",
	"province_name": "辽宁省",
	"city_name": "沈阳市",
	"district_name": "和平区",
	"address": "辽宁省沈阳市和平区三好街61号",
	"ad_code": "210102",
	"type": "普通本科",
	"location": "123.428172,41.768839",
	"geo_location": {
		"longitude": 123.428172,
		"latitude": 41.768839
	},
	"geo_point": {
		"longitude": 123.428172,
		"latitude": 41.768839
	}
}, {
	"name": "鲁迅美术学院",
	"province_name": "辽宁省",
	"city_name": "沈阳市",
	"district_name": "和平区",
	"address": "辽宁省沈阳市和平区三好街19号,大连市金州新区金石滩金石路39号",
	"ad_code": "210102",
	"type": "普通本科",
	"location": "123.430117,41.776938",
	"geo_location": {
		"longitude": 123.430117,
		"latitude": 41.776938
	},
	"geo_point": {
		"longitude": 123.430117,
		"latitude": 41.776938
	}
}, {
	"name": "抚顺师范高等专科学校",
	"province_name": "辽宁省",
	"city_name": "抚顺市",
	"district_name": "望花区",
	"address": "辽宁省抚顺经济开发区旺力街89号",
	"ad_code": "210404",
	"type": "专科（高职）",
	"location": "123.696549,41.786593",
	"geo_location": {
		"longitude": 123.696549,
		"latitude": 41.786593
	},
	"geo_point": {
		"longitude": 123.696549,
		"latitude": 41.786593
	}
}, {
	"name": "锦州师范高等专科学校",
	"province_name": "辽宁省",
	"city_name": "锦州市",
	"district_name": "太和区",
	"address": "锦州市凌河区松坡路189号",
	"ad_code": "210711",
	"type": "专科（高职）",
	"location": "121.155459,41.140470",
	"geo_location": {
		"longitude": 121.155459,
		"latitude": 41.14047
	},
	"geo_point": {
		"longitude": 121.155459,
		"latitude": 41.14047
	}
}, {
	"name": "营口职业技术学院",
	"province_name": "辽宁省",
	"city_name": "营口市",
	"district_name": "站前区",
	"address": "辽宁省营口市西市区新海大街222号",
	"ad_code": "210802",
	"type": "专科（高职）",
	"location": "122.246210,40.660765",
	"geo_location": {
		"longitude": 122.24621,
		"latitude": 40.660765
	},
	"geo_point": {
		"longitude": 122.24621,
		"latitude": 40.660765
	}
}, {
	"name": "铁岭师范高等专科学校",
	"province_name": "辽宁省",
	"city_name": "铁岭市",
	"district_name": "银州区",
	"address": "辽宁省铁岭市凡河新区黑龙江路45号",
	"ad_code": "211202",
	"type": "专科（高职）",
	"location": "123.794926,42.241250",
	"geo_location": {
		"longitude": 123.794926,
		"latitude": 42.24125
	},
	"geo_point": {
		"longitude": 123.794926,
		"latitude": 42.24125
	}
}, {
	"name": "吉林大学",
	"province_name": "吉林省",
	"city_name": "长春市",
	"district_name": "朝阳区",
	"address": "前卫南区：长春市前进大街2699号;前卫北区：长春市解放大路123号",
	"ad_code": "220104",
	"type": "普通本科",
	"location": "125.280441,43.827437",
	"geo_location": {
		"longitude": 125.280441,
		"latitude": 43.827437
	},
	"geo_point": {
		"longitude": 125.280441,
		"latitude": 43.827437
	}
}, {
	"name": "延边大学",
	"province_name": "吉林省",
	"city_name": "延边朝鲜族自治州",
	"district_name": "延吉市",
	"address": "吉林省延吉市公园路977号",
	"ad_code": "222401",
	"type": "普通本科",
	"location": "129.488380,42.912091",
	"geo_location": {
		"longitude": 129.48838,
		"latitude": 42.912091
	},
	"geo_point": {
		"longitude": 129.48838,
		"latitude": 42.912091
	}
}, {
	"name": "长春理工大学",
	"province_name": "吉林省",
	"city_name": "长春市",
	"district_name": "朝阳区",
	"address": "长春市卫星路7089号;长春理工大学招生办公室",
	"ad_code": "220104",
	"type": "普通本科",
	"location": "125.313308,43.834725",
	"geo_location": {
		"longitude": 125.313308,
		"latitude": 43.834725
	},
	"geo_point": {
		"longitude": 125.313308,
		"latitude": 43.834725
	}
}, {
	"name": "东北电力大学",
	"province_name": "吉林省",
	"city_name": "吉林市",
	"district_name": "船营区",
	"address": "吉林省吉林市船营区长春街（路）169号",
	"ad_code": "220204",
	"type": "普通本科",
	"location": "126.504242,43.824626",
	"geo_location": {
		"longitude": 126.504242,
		"latitude": 43.824626
	},
	"geo_point": {
		"longitude": 126.504242,
		"latitude": 43.824626
	}
}, {
	"name": "长春工业大学",
	"province_name": "吉林省",
	"city_name": "长春市",
	"district_name": "朝阳区",
	"address": "长春市延安大街2055号",
	"ad_code": "220104",
	"type": "普通本科",
	"location": "125.299472,43.827263",
	"geo_location": {
		"longitude": 125.299472,
		"latitude": 43.827263
	},
	"geo_point": {
		"longitude": 125.299472,
		"latitude": 43.827263
	}
}, {
	"name": "吉林建筑大学",
	"province_name": "吉林省",
	"city_name": "长春市",
	"district_name": "南关区",
	"address": "吉林省长春市净月开发区新城大街5088号",
	"ad_code": "220102",
	"type": "普通本科",
	"location": "125.407666,43.795220",
	"geo_location": {
		"longitude": 125.407666,
		"latitude": 43.79522
	},
	"geo_point": {
		"longitude": 125.407666,
		"latitude": 43.79522
	}
}, {
	"name": "吉林化工学院",
	"province_name": "吉林省",
	"city_name": "吉林市",
	"district_name": "龙潭区",
	"address": "主校区地址：吉林省吉林市龙潭区承德街（路）45号;双吉校区地址：吉林省吉林市经济技术开发区双吉街",
	"ad_code": "220203",
	"type": "普通本科",
	"location": "126.618340,43.899707",
	"geo_location": {
		"longitude": 126.61834,
		"latitude": 43.899707
	},
	"geo_point": {
		"longitude": 126.61834,
		"latitude": 43.899707
	}
}, {
	"name": "吉林农业大学",
	"province_name": "吉林省",
	"city_name": "长春市",
	"district_name": "南关区",
	"address": "吉林省长春市新城大街2888号",
	"ad_code": "220102",
	"type": "普通本科",
	"location": "125.410385,43.810433",
	"geo_location": {
		"longitude": 125.410385,
		"latitude": 43.810433
	},
	"geo_point": {
		"longitude": 125.410385,
		"latitude": 43.810433
	}
}, {
	"name": "长春中医药大学",
	"province_name": "吉林省",
	"city_name": "长春市",
	"district_name": "南关区",
	"address": "吉林省长春市净月开发区博硕路1035号",
	"ad_code": "220102",
	"type": "普通本科",
	"location": "125.420305,43.829427",
	"geo_location": {
		"longitude": 125.420305,
		"latitude": 43.829427
	},
	"geo_point": {
		"longitude": 125.420305,
		"latitude": 43.829427
	}
}, {
	"name": "东北师范大学",
	"province_name": "吉林省",
	"city_name": "长春市",
	"district_name": "南关区",
	"address": "校本部：吉林省长春市人民大街5268号;净月校区：吉林省长春市净月大街2555号",
	"ad_code": "220102",
	"type": "普通本科",
	"location": "125.337298,43.863599",
	"geo_location": {
		"longitude": 125.337298,
		"latitude": 43.863599
	},
	"geo_point": {
		"longitude": 125.337298,
		"latitude": 43.863599
	}
}, {
	"name": "北华大学",
	"province_name": "吉林省",
	"city_name": "吉林市",
	"district_name": "丰满区",
	"address": "吉林省吉林市丰满区滨江东路3999号",
	"ad_code": "220211",
	"type": "普通本科",
	"location": "126.605805,43.836697",
	"geo_location": {
		"longitude": 126.605805,
		"latitude": 43.836697
	},
	"geo_point": {
		"longitude": 126.605805,
		"latitude": 43.836697
	}
}, {
	"name": "通化师范学院",
	"province_name": "吉林省",
	"city_name": "通化市",
	"district_name": "东昌区",
	"address": "吉林省通化市育才路950号",
	"ad_code": "220502",
	"type": "普通本科",
	"location": "125.988453,41.746543",
	"geo_location": {
		"longitude": 125.988453,
		"latitude": 41.746543
	},
	"geo_point": {
		"longitude": 125.988453,
		"latitude": 41.746543
	}
}, {
	"name": "吉林师范大学",
	"province_name": "吉林省",
	"city_name": "四平市",
	"district_name": "铁西区",
	"address": "吉林省四平市铁西区海丰大街1301号",
	"ad_code": "220302",
	"type": "普通本科",
	"location": "124.345083,43.156557",
	"geo_location": {
		"longitude": 124.345083,
		"latitude": 43.156557
	},
	"geo_point": {
		"longitude": 124.345083,
		"latitude": 43.156557
	}
}, {
	"name": "吉林工程技术师范学院",
	"province_name": "吉林省",
	"city_name": "长春市",
	"district_name": "宽城区",
	"address": "主校区地址：吉林省长春市宽城区凯旋路3050号;泰来校区地址：吉林省长春市绿园区泰来街1485号",
	"ad_code": "220103",
	"type": "普通本科",
	"location": "125.318700,43.937565",
	"geo_location": {
		"longitude": 125.3187,
		"latitude": 43.937565
	},
	"geo_point": {
		"longitude": 125.3187,
		"latitude": 43.937565
	}
}, {
	"name": "长春师范大学",
	"province_name": "吉林省",
	"city_name": "长春市",
	"district_name": "二道区",
	"address": "吉林省长春市二道区长吉北路677号",
	"ad_code": "220105",
	"type": "普通本科",
	"location": "125.392572,43.910114",
	"geo_location": {
		"longitude": 125.392572,
		"latitude": 43.910114
	},
	"geo_point": {
		"longitude": 125.392572,
		"latitude": 43.910114
	}
}, {
	"name": "白城师范学院",
	"province_name": "吉林省",
	"city_name": "白城市",
	"district_name": "洮北区",
	"address": "吉林省白城市洮北区中兴西大路57号",
	"ad_code": "220802",
	"type": "普通本科",
	"location": "122.808860,45.615384",
	"geo_location": {
		"longitude": 122.80886,
		"latitude": 45.615384
	},
	"geo_point": {
		"longitude": 122.80886,
		"latitude": 45.615384
	}
}, {
	"name": "吉林财经大学",
	"province_name": "吉林省",
	"city_name": "长春市",
	"district_name": "南关区",
	"address": "吉林省长春市净月大街3699号",
	"ad_code": "220102",
	"type": "普通本科",
	"location": "125.435323,43.818978",
	"geo_location": {
		"longitude": 125.435323,
		"latitude": 43.818978
	},
	"geo_point": {
		"longitude": 125.435323,
		"latitude": 43.818978
	}
}, {
	"name": "吉林体育学院",
	"province_name": "吉林省",
	"city_name": "长春市",
	"district_name": "南关区",
	"address": "吉林省长春市南关区自由大路2476号",
	"ad_code": "220102",
	"type": "普通本科",
	"location": "125.340033,43.862130",
	"geo_location": {
		"longitude": 125.340033,
		"latitude": 43.86213
	},
	"geo_point": {
		"longitude": 125.340033,
		"latitude": 43.86213
	}
}, {
	"name": "吉林艺术学院",
	"province_name": "吉林省",
	"city_name": "长春市",
	"district_name": "朝阳区",
	"address": "长春市自由大路695号",
	"ad_code": "220104",
	"type": "普通本科",
	"location": "125.277974,43.852422",
	"geo_location": {
		"longitude": 125.277974,
		"latitude": 43.852422
	},
	"geo_point": {
		"longitude": 125.277974,
		"latitude": 43.852422
	}
}, {
	"name": "黑龙江大学",
	"province_name": "黑龙江省",
	"city_name": "哈尔滨市",
	"district_name": "南岗区",
	"address": "黑龙江省哈尔滨市南岗区学府路74号",
	"ad_code": "230103",
	"type": "普通本科",
	"location": "126.622339,45.708441",
	"geo_location": {
		"longitude": 126.622339,
		"latitude": 45.708441
	},
	"geo_point": {
		"longitude": 126.622339,
		"latitude": 45.708441
	}
}, {
	"name": "哈尔滨工业大学",
	"province_name": "黑龙江省",
	"city_name": "哈尔滨市",
	"district_name": "南岗区",
	"address": "黑龙江省哈尔滨市南岗区西大直街92号",
	"ad_code": "230103",
	"type": "普通本科",
	"location": "126.632884,45.743721",
	"geo_location": {
		"longitude": 126.632884,
		"latitude": 45.743721
	},
	"geo_point": {
		"longitude": 126.632884,
		"latitude": 45.743721
	}
}, {
	"name": "哈尔滨理工大学",
	"province_name": "黑龙江省",
	"city_name": "哈尔滨市",
	"district_name": "南岗区",
	"address": "黑龙江省哈尔滨市南岗区学府路52号",
	"ad_code": "230103",
	"type": "普通本科",
	"location": "126.616657,45.714903",
	"geo_location": {
		"longitude": 126.616657,
		"latitude": 45.714903
	},
	"geo_point": {
		"longitude": 126.616657,
		"latitude": 45.714903
	}
}, {
	"name": "燕山大学",
	"province_name": "河北省",
	"city_name": "秦皇岛市",
	"district_name": "海港区",
	"address": "河北省秦皇岛市海港区河北大街438号",
	"ad_code": "130302",
	"type": "普通本科",
	"location": "119.539445,39.906497",
	"geo_location": {
		"longitude": 119.539445,
		"latitude": 39.906497
	},
	"geo_point": {
		"longitude": 119.539445,
		"latitude": 39.906497
	}
}, {
	"name": "哈尔滨工程大学",
	"province_name": "黑龙江省",
	"city_name": "哈尔滨市",
	"district_name": "南岗区",
	"address": "哈尔滨市南岗区南通大街145号",
	"ad_code": "230103",
	"type": "普通本科",
	"location": "126.681632,45.776638",
	"geo_location": {
		"longitude": 126.681632,
		"latitude": 45.776638
	},
	"geo_point": {
		"longitude": 126.681632,
		"latitude": 45.776638
	}
}, {
	"name": "黑龙江科技大学",
	"province_name": "黑龙江省",
	"city_name": "哈尔滨市",
	"district_name": "松北区",
	"address": "黑龙江省哈尔滨市松北区浦源路2468号",
	"ad_code": "230109",
	"type": "普通本科",
	"location": "126.652580,45.819463",
	"geo_location": {
		"longitude": 126.65258,
		"latitude": 45.819463
	},
	"geo_point": {
		"longitude": 126.65258,
		"latitude": 45.819463
	}
}, {
	"name": "东北石油大学",
	"province_name": "黑龙江省",
	"city_name": "大庆市",
	"district_name": "龙凤区",
	"address": "黑龙江省大庆市高新技术开发区发展路199号",
	"ad_code": "230603",
	"type": "普通本科",
	"location": "125.144775,46.586400",
	"geo_location": {
		"longitude": 125.144775,
		"latitude": 46.5864
	},
	"geo_point": {
		"longitude": 125.144775,
		"latitude": 46.5864
	}
}, {
	"name": "佳木斯大学",
	"province_name": "黑龙江省",
	"city_name": "佳木斯市",
	"district_name": "向阳区",
	"address": "黑龙江省佳木斯市学府街258号",
	"ad_code": "230803",
	"type": "普通本科",
	"location": "130.361339,46.805596",
	"geo_location": {
		"longitude": 130.361339,
		"latitude": 46.805596
	},
	"geo_point": {
		"longitude": 130.361339,
		"latitude": 46.805596
	}
}, {
	"name": "黑龙江八一农垦大学",
	"province_name": "黑龙江省",
	"city_name": "大庆市",
	"district_name": "龙凤区",
	"address": "黑龙江省大庆市高新区新风路5号",
	"ad_code": "230603",
	"type": "普通本科",
	"location": "125.168726,46.582783",
	"geo_location": {
		"longitude": 125.168726,
		"latitude": 46.582783
	},
	"geo_point": {
		"longitude": 125.168726,
		"latitude": 46.582783
	}
}, {
	"name": "东北农业大学",
	"province_name": "黑龙江省",
	"city_name": "哈尔滨市",
	"district_name": "香坊区",
	"address": "黑龙江省哈尔滨市香坊区长江路600号",
	"ad_code": "230110",
	"type": "普通本科",
	"location": "126.728855,45.744789",
	"geo_location": {
		"longitude": 126.728855,
		"latitude": 45.744789
	},
	"geo_point": {
		"longitude": 126.728855,
		"latitude": 45.744789
	}
}, {
	"name": "东北林业大学",
	"province_name": "黑龙江省",
	"city_name": "哈尔滨市",
	"district_name": "香坊区",
	"address": "黑龙江省哈尔滨市香坊区和兴路26号",
	"ad_code": "230110",
	"type": "普通本科",
	"location": "126.641763,45.720477",
	"geo_location": {
		"longitude": 126.641763,
		"latitude": 45.720477
	},
	"geo_point": {
		"longitude": 126.641763,
		"latitude": 45.720477
	}
}, {
	"name": "哈尔滨医科大学",
	"province_name": "黑龙江省",
	"city_name": "哈尔滨市",
	"district_name": "南岗区",
	"address": "哈尔滨南岗区保健路157号",
	"ad_code": "230103",
	"type": "普通本科",
	"location": "126.619972,45.701450",
	"geo_location": {
		"longitude": 126.619972,
		"latitude": 45.70145
	},
	"geo_point": {
		"longitude": 126.619972,
		"latitude": 45.70145
	}
}, {
	"name": "黑龙江中医药大学",
	"province_name": "黑龙江省",
	"city_name": "哈尔滨市",
	"district_name": "香坊区",
	"address": "哈尔滨市香坊区和平路24号",
	"ad_code": "230110",
	"type": "普通本科",
	"location": "126.647518,45.726826",
	"geo_location": {
		"longitude": 126.647518,
		"latitude": 45.726826
	},
	"geo_point": {
		"longitude": 126.647518,
		"latitude": 45.726826
	}
}, {
	"name": "牡丹江医学院",
	"province_name": "黑龙江省",
	"city_name": "牡丹江市",
	"district_name": "爱民区",
	"address": "牡丹江市爱民区通乡路3号",
	"ad_code": "231004",
	"type": "普通本科",
	"location": "129.580719,44.604183",
	"geo_location": {
		"longitude": 129.580719,
		"latitude": 44.604183
	},
	"geo_point": {
		"longitude": 129.580719,
		"latitude": 44.604183
	}
}, {
	"name": "哈尔滨师范大学",
	"province_name": "黑龙江省",
	"city_name": "哈尔滨市",
	"district_name": "呼兰区",
	"address": "哈尔滨利民经济技术开发区师大南路１号",
	"ad_code": "230111",
	"type": "普通本科",
	"location": "126.560915,45.869792",
	"geo_location": {
		"longitude": 126.560915,
		"latitude": 45.869792
	},
	"geo_point": {
		"longitude": 126.560915,
		"latitude": 45.869792
	}
}, {
	"name": "齐齐哈尔大学",
	"province_name": "黑龙江省",
	"city_name": "齐齐哈尔市",
	"district_name": "建华区",
	"address": "黑龙江省齐齐哈尔市建华区文化大街42号",
	"ad_code": "230203",
	"type": "普通本科",
	"location": "123.926859,47.353873",
	"geo_location": {
		"longitude": 123.926859,
		"latitude": 47.353873
	},
	"geo_point": {
		"longitude": 123.926859,
		"latitude": 47.353873
	}
}, {
	"name": "牡丹江师范学院",
	"province_name": "黑龙江省",
	"city_name": "牡丹江市",
	"district_name": "爱民区",
	"address": "黑龙江省牡丹江市爱民区文化街191号",
	"ad_code": "231004",
	"type": "普通本科",
	"location": "129.561043,44.589887",
	"geo_location": {
		"longitude": 129.561043,
		"latitude": 44.589887
	},
	"geo_point": {
		"longitude": 129.561043,
		"latitude": 44.589887
	}
}, {
	"name": "哈尔滨学院",
	"province_name": "黑龙江省",
	"city_name": "哈尔滨市",
	"district_name": "南岗区",
	"address": "黑龙江省哈尔滨市南岗区中兴大道109号（原南岗区学府四道街9号）",
	"ad_code": "230103",
	"type": "普通本科",
	"location": "126.606999,45.704504",
	"geo_location": {
		"longitude": 126.606999,
		"latitude": 45.704504
	},
	"geo_point": {
		"longitude": 126.606999,
		"latitude": 45.704504
	}
}, {
	"name": "大庆师范学院",
	"province_name": "黑龙江省",
	"city_name": "大庆市",
	"district_name": "让胡路区",
	"address": "黑龙江省大庆市让胡路区西佳路23号",
	"ad_code": "230604",
	"type": "普通本科",
	"location": "124.862500,46.637820",
	"geo_location": {
		"longitude": 124.8625,
		"latitude": 46.63782
	},
	"geo_point": {
		"longitude": 124.8625,
		"latitude": 46.63782
	}
}, {
	"name": "绥化学院",
	"province_name": "黑龙江省",
	"city_name": "绥化市",
	"district_name": "北林区",
	"address": "黑龙江省绥化市黄河南路18号",
	"ad_code": "231202",
	"type": "普通本科",
	"location": "126.977918,46.624030",
	"geo_location": {
		"longitude": 126.977918,
		"latitude": 46.62403
	},
	"geo_point": {
		"longitude": 126.977918,
		"latitude": 46.62403
	}
}, {
	"name": "齐齐哈尔高等师范专科学校",
	"province_name": "黑龙江省",
	"city_name": "齐齐哈尔市",
	"district_name": "铁锋区",
	"address": "黑龙江省齐齐哈尔市民航路566号",
	"ad_code": "230204",
	"type": "专科（高职）",
	"location": "123.973752,47.314421",
	"geo_location": {
		"longitude": 123.973752,
		"latitude": 47.314421
	},
	"geo_point": {
		"longitude": 123.973752,
		"latitude": 47.314421
	}
}, {
	"name": "哈尔滨商业大学",
	"province_name": "黑龙江省",
	"city_name": "哈尔滨市",
	"district_name": "道里区",
	"address": "黑龙江省哈尔滨市松北区学海街1号",
	"ad_code": "230102",
	"type": "普通本科",
	"location": "126.609094,45.742069",
	"geo_location": {
		"longitude": 126.609094,
		"latitude": 45.742069
	},
	"geo_point": {
		"longitude": 126.609094,
		"latitude": 45.742069
	}
}, {
	"name": "哈尔滨体育学院",
	"province_name": "黑龙江省",
	"city_name": "哈尔滨市",
	"district_name": "南岗区",
	"address": "哈尔滨市南岗区大成街1号",
	"ad_code": "230103",
	"type": "普通本科",
	"location": "126.677420,45.760065",
	"geo_location": {
		"longitude": 126.67742,
		"latitude": 45.760065
	},
	"geo_point": {
		"longitude": 126.67742,
		"latitude": 45.760065
	}
}, {
	"name": "哈尔滨金融学院",
	"province_name": "黑龙江省",
	"city_name": "哈尔滨市",
	"district_name": "香坊区",
	"address": "哈尔滨市香坊区电碳路65号",
	"ad_code": "230110",
	"type": "普通本科",
	"location": "126.736350,45.721920",
	"geo_location": {
		"longitude": 126.73635,
		"latitude": 45.72192
	},
	"geo_point": {
		"longitude": 126.73635,
		"latitude": 45.72192
	}
}, {
	"name": "复旦大学",
	"province_name": "上海市",
	"city_name": "上海市",
	"district_name": "杨浦区",
	"address": "上海市杨浦区邯郸路220号",
	"ad_code": "310110",
	"type": "普通本科",
	"location": "121.508578,31.296968",
	"geo_location": {
		"longitude": 121.508578,
		"latitude": 31.296968
	},
	"geo_point": {
		"longitude": 121.508578,
		"latitude": 31.296968
	}
}, {
	"name": "同济大学",
	"province_name": "上海市",
	"city_name": "上海市",
	"district_name": "杨浦区",
	"address": "上海市四平路1239号",
	"ad_code": "310110",
	"type": "普通本科",
	"location": "121.499503,31.280193",
	"geo_location": {
		"longitude": 121.499503,
		"latitude": 31.280193
	},
	"geo_point": {
		"longitude": 121.499503,
		"latitude": 31.280193
	}
}, {
	"name": "上海交通大学",
	"province_name": "上海市",
	"city_name": "上海市",
	"district_name": "长宁区",
	"address": "上海市东川路800号",
	"ad_code": "310105",
	"type": "普通本科",
	"location": "121.425413,31.206075",
	"geo_location": {
		"longitude": 121.425413,
		"latitude": 31.206075
	},
	"geo_point": {
		"longitude": 121.425413,
		"latitude": 31.206075
	}
}, {
	"name": "华东理工大学",
	"province_name": "上海市",
	"city_name": "上海市",
	"district_name": "徐汇区",
	"address": "上海市梅陇路130号",
	"ad_code": "310104",
	"type": "普通本科",
	"location": "121.428360,31.143459",
	"geo_location": {
		"longitude": 121.42836,
		"latitude": 31.143459
	},
	"geo_point": {
		"longitude": 121.42836,
		"latitude": 31.143459
	}
}, {
	"name": "上海理工大学",
	"province_name": "上海市",
	"city_name": "上海市",
	"district_name": "杨浦区",
	"address": "上海市军工路516号",
	"ad_code": "310110",
	"type": "普通本科",
	"location": "121.552116,31.289915",
	"geo_location": {
		"longitude": 121.552116,
		"latitude": 31.289915
	},
	"geo_point": {
		"longitude": 121.552116,
		"latitude": 31.289915
	}
}, {
	"name": "上海海事大学",
	"province_name": "上海市",
	"city_name": "上海市",
	"district_name": "浦东新区",
	"address": "上海市浦东新区海港大道1550号",
	"ad_code": "310115",
	"type": "普通本科",
	"location": "121.904018,30.871598",
	"geo_location": {
		"longitude": 121.904018,
		"latitude": 30.871598
	},
	"geo_point": {
		"longitude": 121.904018,
		"latitude": 30.871598
	}
}, {
	"name": "东华大学",
	"province_name": "上海市",
	"city_name": "上海市",
	"district_name": "长宁区",
	"address": "上海市延安西路1882号",
	"ad_code": "310105",
	"type": "普通本科",
	"location": "121.413222,31.205135",
	"geo_location": {
		"longitude": 121.413222,
		"latitude": 31.205135
	},
	"geo_point": {
		"longitude": 121.413222,
		"latitude": 31.205135
	}
}, {
	"name": "上海电力大学",
	"province_name": "上海市",
	"city_name": "上海市",
	"district_name": "杨浦区",
	"address": "上海市杨浦区长阳路2588号",
	"ad_code": "310110",
	"type": "普通本科",
	"location": "121.546776,31.275180",
	"geo_location": {
		"longitude": 121.546776,
		"latitude": 31.27518
	},
	"geo_point": {
		"longitude": 121.546776,
		"latitude": 31.27518
	}
}, {
	"name": "上海应用技术大学",
	"province_name": "上海市",
	"city_name": "上海市",
	"district_name": "徐汇区",
	"address": "奉贤校区：上海市奉贤区海泉路100号;徐汇校区：上海市徐汇区漕宝路120号",
	"ad_code": "310104",
	"type": "普通本科",
	"location": "121.422595,31.166042",
	"geo_location": {
		"longitude": 121.422595,
		"latitude": 31.166042
	},
	"geo_point": {
		"longitude": 121.422595,
		"latitude": 31.166042
	}
}, {
	"name": "上海健康医学院",
	"province_name": "上海市",
	"city_name": "上海市",
	"district_name": "浦东新区",
	"address": "上海市浦东新区周祝公路279号",
	"ad_code": "310115",
	"type": "普通本科",
	"location": "121.612071,31.099605",
	"geo_location": {
		"longitude": 121.612071,
		"latitude": 31.099605
	},
	"geo_point": {
		"longitude": 121.612071,
		"latitude": 31.099605
	}
}, {
	"name": "上海海洋大学",
	"province_name": "上海市",
	"city_name": "上海市",
	"district_name": "浦东新区",
	"address": "上海市浦东新区临港新城护城环路999号",
	"ad_code": "310115",
	"type": "普通本科",
	"location": "121.892161,30.885617",
	"geo_location": {
		"longitude": 121.892161,
		"latitude": 30.885617
	},
	"geo_point": {
		"longitude": 121.892161,
		"latitude": 30.885617
	}
}, {
	"name": "上海中医药大学",
	"province_name": "上海市",
	"city_name": "上海市",
	"district_name": "浦东新区",
	"address": "上海市浦东新区蔡伦路1200号",
	"ad_code": "310115",
	"type": "普通本科",
	"location": "121.596755,31.194045",
	"geo_location": {
		"longitude": 121.596755,
		"latitude": 31.194045
	},
	"geo_point": {
		"longitude": 121.596755,
		"latitude": 31.194045
	}
}, {
	"name": "华东师范大学",
	"province_name": "上海市",
	"city_name": "上海市",
	"district_name": "普陀区",
	"address": "上海市中山北路3663号",
	"ad_code": "310107",
	"type": "普通本科",
	"location": "121.408669,31.226649",
	"geo_location": {
		"longitude": 121.408669,
		"latitude": 31.226649
	},
	"geo_point": {
		"longitude": 121.408669,
		"latitude": 31.226649
	}
}, {
	"name": "上海师范大学",
	"province_name": "上海市",
	"city_name": "上海市",
	"district_name": "闵行区",
	"address": "徐汇校区地址为桂林路100号：奉贤校区地址为海思路100号",
	"ad_code": "310112",
	"type": "普通本科",
	"location": "121.453679,31.031557",
	"geo_location": {
		"longitude": 121.453679,
		"latitude": 31.031557
	},
	"geo_point": {
		"longitude": 121.453679,
		"latitude": 31.031557
	}
}, {
	"name": "上海外国语大学",
	"province_name": "上海市",
	"city_name": "上海市",
	"district_name": "虹口区",
	"address": "上海市虹口区大连西路550号",
	"ad_code": "310109",
	"type": "普通本科",
	"location": "121.482501,31.276593",
	"geo_location": {
		"longitude": 121.482501,
		"latitude": 31.276593
	},
	"geo_point": {
		"longitude": 121.482501,
		"latitude": 31.276593
	}
}, {
	"name": "上海财经大学",
	"province_name": "上海市",
	"city_name": "上海市",
	"district_name": "杨浦区",
	"address": "上海市杨浦区国定路777号",
	"ad_code": "310110",
	"type": "普通本科",
	"location": "121.500850,31.306472",
	"geo_location": {
		"longitude": 121.50085,
		"latitude": 31.306472
	},
	"geo_point": {
		"longitude": 121.50085,
		"latitude": 31.306472
	}
}, {
	"name": "上海对外经贸大学",
	"province_name": "上海市",
	"city_name": "上海市",
	"district_name": "松江区",
	"address": "上海市松江区文翔路1900号",
	"ad_code": "310117",
	"type": "普通本科",
	"location": "121.220400,31.047361",
	"geo_location": {
		"longitude": 121.2204,
		"latitude": 31.047361
	},
	"geo_point": {
		"longitude": 121.2204,
		"latitude": 31.047361
	}
}, {
	"name": "上海海关学院",
	"province_name": "上海市",
	"city_name": "上海市",
	"district_name": "浦东新区",
	"address": "上海市浦东新区华夏西路5677号",
	"ad_code": "310115",
	"type": "普通本科",
	"location": "121.578106,31.168650",
	"geo_location": {
		"longitude": 121.578106,
		"latitude": 31.16865
	},
	"geo_point": {
		"longitude": 121.578106,
		"latitude": 31.16865
	}
}, {
	"name": "上海旅游高等专科学校",
	"province_name": "上海市",
	"city_name": "上海市",
	"district_name": "奉贤区",
	"address": "上海市奉贤区海思路500号",
	"ad_code": "310120",
	"type": "专科（高职）",
	"location": "121.512960,30.833541",
	"geo_location": {
		"longitude": 121.51296,
		"latitude": 30.833541
	},
	"geo_point": {
		"longitude": 121.51296,
		"latitude": 30.833541
	}
}, {
	"name": "华东政法大学",
	"province_name": "上海市",
	"city_name": "上海市",
	"district_name": "长宁区",
	"address": "上海市松江大学园区龙源路555号",
	"ad_code": "310105",
	"type": "普通本科",
	"location": "121.417560,31.224970",
	"geo_location": {
		"longitude": 121.41756,
		"latitude": 31.22497
	},
	"geo_point": {
		"longitude": 121.41756,
		"latitude": 31.22497
	}
}, {
	"name": "上海体育学院",
	"province_name": "上海市",
	"city_name": "上海市",
	"district_name": "杨浦区",
	"address": "上海市杨浦区清源环路650号",
	"ad_code": "310110",
	"type": "普通本科",
	"location": "121.525115,31.312298",
	"geo_location": {
		"longitude": 121.525115,
		"latitude": 31.312298
	},
	"geo_point": {
		"longitude": 121.525115,
		"latitude": 31.312298
	}
}, {
	"name": "上海音乐学院",
	"province_name": "上海市",
	"city_name": "上海市",
	"district_name": "徐汇区",
	"address": "上海市汾阳路20号",
	"ad_code": "310104",
	"type": "普通本科",
	"location": "121.454490,31.213908",
	"geo_location": {
		"longitude": 121.45449,
		"latitude": 31.213908
	},
	"geo_point": {
		"longitude": 121.45449,
		"latitude": 31.213908
	}
}, {
	"name": "上海戏剧学院",
	"province_name": "上海市",
	"city_name": "上海市",
	"district_name": "静安区",
	"address": "上海市华山路630号;莲花路校区：上海市莲花路211号",
	"ad_code": "310106",
	"type": "普通本科",
	"location": "121.439517,31.217155",
	"geo_location": {
		"longitude": 121.439517,
		"latitude": 31.217155
	},
	"geo_point": {
		"longitude": 121.439517,
		"latitude": 31.217155
	}
}, {
	"name": "上海大学",
	"province_name": "上海市",
	"city_name": "上海市",
	"district_name": "宝山区",
	"address": "宝山校区：上海市宝山区上大路99号;延长校区：上海市静安区延长路149号",
	"ad_code": "310113",
	"type": "普通本科",
	"location": "121.392456,31.315883",
	"geo_location": {
		"longitude": 121.392456,
		"latitude": 31.315883
	},
	"geo_point": {
		"longitude": 121.392456,
		"latitude": 31.315883
	}
}, {
	"name": "上海公安学院",
	"province_name": "上海市",
	"city_name": "上海市",
	"district_name": "浦东新区",
	"address": "浦东新区崇景路100号",
	"ad_code": "310115",
	"type": "普通本科",
	"location": "121.519327,31.380144",
	"geo_location": {
		"longitude": 121.519327,
		"latitude": 31.380144
	},
	"geo_point": {
		"longitude": 121.519327,
		"latitude": 31.380144
	}
}, {
	"name": "南京大学",
	"province_name": "江苏省",
	"city_name": "南京市",
	"district_name": "栖霞区",
	"address": "仙林校区地址：江苏省南京市仙林大道163号;鼓楼校区地址：江苏省南京市汉口路22号",
	"ad_code": "320113",
	"type": "普通本科",
	"location": "118.961365,32.110012",
	"geo_location": {
		"longitude": 118.961365,
		"latitude": 32.110012
	},
	"geo_point": {
		"longitude": 118.961365,
		"latitude": 32.110012
	}
}, {
	"name": "苏州大学",
	"province_name": "江苏省",
	"city_name": "苏州市",
	"district_name": "姑苏区",
	"address": "天赐庄校区：江苏省苏州市十梓街1号;独墅湖校区：苏州工业园区仁爱路199号",
	"ad_code": "320508",
	"type": "普通本科",
	"location": "120.641182,31.302245",
	"geo_location": {
		"longitude": 120.641182,
		"latitude": 31.302245
	},
	"geo_point": {
		"longitude": 120.641182,
		"latitude": 31.302245
	}
}, {
	"name": "东南大学",
	"province_name": "江苏省",
	"city_name": "南京市",
	"district_name": "玄武区",
	"address": "南京市江宁区东南大学路2号",
	"ad_code": "320102",
	"type": "普通本科",
	"location": "118.798150,32.046546",
	"geo_location": {
		"longitude": 118.79815,
		"latitude": 32.046546
	},
	"geo_point": {
		"longitude": 118.79815,
		"latitude": 32.046546
	}
}, {
	"name": "南京航空航天大学",
	"province_name": "江苏省",
	"city_name": "南京市",
	"district_name": "秦淮区",
	"address": "明故宫校区：江苏省南京市秦淮区御道街29号;将军路校区：南京市江宁区将军大道29号",
	"ad_code": "320104",
	"type": "普通本科",
	"location": "118.820289,32.035021",
	"geo_location": {
		"longitude": 118.820289,
		"latitude": 32.035021
	},
	"geo_point": {
		"longitude": 118.820289,
		"latitude": 32.035021
	}
}, {
	"name": "南京理工大学",
	"province_name": "江苏省",
	"city_name": "南京市",
	"district_name": "玄武区",
	"address": "江苏省南京市孝陵卫200号",
	"ad_code": "320102",
	"type": "普通本科",
	"location": "118.857244,32.026884",
	"geo_location": {
		"longitude": 118.857244,
		"latitude": 32.026884
	},
	"geo_point": {
		"longitude": 118.857244,
		"latitude": 32.026884
	}
}, {
	"name": "江苏科技大学",
	"province_name": "江苏省",
	"city_name": "镇江市",
	"district_name": "京口区",
	"address": "东校区：江苏省镇江市梦溪路2号;西校区：江苏省镇江市南徐大道西段",
	"ad_code": "321102",
	"type": "普通本科",
	"location": "119.469188,32.195471",
	"geo_location": {
		"longitude": 119.469188,
		"latitude": 32.195471
	},
	"geo_point": {
		"longitude": 119.469188,
		"latitude": 32.195471
	}
}, {
	"name": "中国矿业大学",
	"province_name": "江苏省",
	"city_name": "徐州市",
	"district_name": "泉山区",
	"address": "江苏省徐州市大学路1号",
	"ad_code": "320311",
	"type": "普通本科",
	"location": "117.195747,34.220551",
	"geo_location": {
		"longitude": 117.195747,
		"latitude": 34.220551
	},
	"geo_point": {
		"longitude": 117.195747,
		"latitude": 34.220551
	}
}, {
	"name": "南京工业大学",
	"province_name": "江苏省",
	"city_name": "南京市",
	"district_name": "浦口区",
	"address": "南京市江北新区浦珠南路30号",
	"ad_code": "320111",
	"type": "普通本科",
	"location": "118.642381,32.077725",
	"geo_location": {
		"longitude": 118.642381,
		"latitude": 32.077725
	},
	"geo_point": {
		"longitude": 118.642381,
		"latitude": 32.077725
	}
}, {
	"name": "常州大学",
	"province_name": "江苏省",
	"city_name": "常州市",
	"district_name": "武进区",
	"address": "科教城校区：江苏省常州市武进区滆湖路;白云校区：江苏省常州市钟楼区白云路",
	"ad_code": "320412",
	"type": "普通本科",
	"location": "119.957948,31.683504",
	"geo_location": {
		"longitude": 119.957948,
		"latitude": 31.683504
	},
	"geo_point": {
		"longitude": 119.957948,
		"latitude": 31.683504
	}
}, {
	"name": "南京邮电大学",
	"province_name": "江苏省",
	"city_name": "南京市",
	"district_name": "玄武区",
	"address": "仙林校区地址：南京市亚东新城区文苑路9号;三牌楼校区地址：南京市新模范马路66号",
	"ad_code": "320102",
	"type": "普通本科",
	"location": "118.814249,32.070478",
	"geo_location": {
		"longitude": 118.814249,
		"latitude": 32.070478
	},
	"geo_point": {
		"longitude": 118.814249,
		"latitude": 32.070478
	}
}, {
	"name": "河海大学",
	"province_name": "江苏省",
	"city_name": "南京市",
	"district_name": "鼓楼区",
	"address": "江苏省南京市鼓楼区西康路1号;江苏省南京市江宁区佛城西路8号",
	"ad_code": "320106",
	"type": "普通本科",
	"location": "118.759463,32.055548",
	"geo_location": {
		"longitude": 118.759463,
		"latitude": 32.055548
	},
	"geo_point": {
		"longitude": 118.759463,
		"latitude": 32.055548
	}
}, {
	"name": "江南大学",
	"province_name": "江苏省",
	"city_name": "无锡市",
	"district_name": "滨湖区",
	"address": "江苏省无锡市蠡湖大道1800号",
	"ad_code": "320211",
	"type": "普通本科",
	"location": "120.266635,31.488285",
	"geo_location": {
		"longitude": 120.266635,
		"latitude": 31.488285
	},
	"geo_point": {
		"longitude": 120.266635,
		"latitude": 31.488285
	}
}, {
	"name": "南京林业大学",
	"province_name": "江苏省",
	"city_name": "南京市",
	"district_name": "玄武区",
	"address": "江苏省南京市龙蟠路159号",
	"ad_code": "320102",
	"type": "普通本科",
	"location": "118.816826,32.078682",
	"geo_location": {
		"longitude": 118.816826,
		"latitude": 32.078682
	},
	"geo_point": {
		"longitude": 118.816826,
		"latitude": 32.078682
	}
}, {
	"name": "江苏大学",
	"province_name": "江苏省",
	"city_name": "镇江市",
	"district_name": "京口区",
	"address": "江苏省镇江市学府路301号",
	"ad_code": "321102",
	"type": "普通本科",
	"location": "119.515925,32.199218",
	"geo_location": {
		"longitude": 119.515925,
		"latitude": 32.199218
	},
	"geo_point": {
		"longitude": 119.515925,
		"latitude": 32.199218
	}
}, {
	"name": "南京信息工程大学",
	"province_name": "江苏省",
	"city_name": "南京市",
	"district_name": "浦口区",
	"address": "江苏省南京市宁六路219号",
	"ad_code": "320111",
	"type": "普通本科",
	"location": "118.715506,32.203356",
	"geo_location": {
		"longitude": 118.715506,
		"latitude": 32.203356
	},
	"geo_point": {
		"longitude": 118.715506,
		"latitude": 32.203356
	}
}, {
	"name": "南通大学",
	"province_name": "江苏省",
	"city_name": "南通市",
	"district_name": "崇川区",
	"address": "南通市啬园路9号,启秀路19号",
	"ad_code": "320613",
	"type": "普通本科",
	"location": "120.906396,31.975851",
	"geo_location": {
		"longitude": 120.906396,
		"latitude": 31.975851
	},
	"geo_point": {
		"longitude": 120.906396,
		"latitude": 31.975851
	}
}, {
	"name": "盐城工学院",
	"province_name": "江苏省",
	"city_name": "盐城市",
	"district_name": "亭湖区",
	"address": "江苏省盐城市希望大道中路1号;江苏省盐城市建军东路211号",
	"ad_code": "320902",
	"type": "普通本科",
	"location": "120.176971,33.400136",
	"geo_location": {
		"longitude": 120.176971,
		"latitude": 33.400136
	},
	"geo_point": {
		"longitude": 120.176971,
		"latitude": 33.400136
	}
}, {
	"name": "南京农业大学",
	"province_name": "江苏省",
	"city_name": "南京市",
	"district_name": "玄武区",
	"address": "江苏省南京市玄武区卫岗1号",
	"ad_code": "320102",
	"type": "普通本科",
	"location": "118.839686,32.033444",
	"geo_location": {
		"longitude": 118.839686,
		"latitude": 32.033444
	},
	"geo_point": {
		"longitude": 118.839686,
		"latitude": 32.033444
	}
}, {
	"name": "南京医科大学",
	"province_name": "江苏省",
	"city_name": "南京市",
	"district_name": "江宁区",
	"address": "南京市江宁区龙眠大道101号",
	"ad_code": "320115",
	"type": "普通本科",
	"location": "118.890830,31.938011",
	"geo_location": {
		"longitude": 118.89083,
		"latitude": 31.938011
	},
	"geo_point": {
		"longitude": 118.89083,
		"latitude": 31.938011
	}
}, {
	"name": "徐州医科大学",
	"province_name": "江苏省",
	"city_name": "徐州市",
	"district_name": "云龙区",
	"address": "徐州市铜山路209号",
	"ad_code": "320303",
	"type": "普通本科",
	"location": "117.255474,34.264709",
	"geo_location": {
		"longitude": 117.255474,
		"latitude": 34.264709
	},
	"geo_point": {
		"longitude": 117.255474,
		"latitude": 34.264709
	}
}, {
	"name": "南京中医药大学",
	"province_name": "江苏省",
	"city_name": "南京市",
	"district_name": "栖霞区",
	"address": "南京仙林大学城仙林大道138号",
	"ad_code": "320113",
	"type": "普通本科",
	"location": "118.945416,32.101878",
	"geo_location": {
		"longitude": 118.945416,
		"latitude": 32.101878
	},
	"geo_point": {
		"longitude": 118.945416,
		"latitude": 32.101878
	}
}, {
	"name": "中国药科大学",
	"province_name": "江苏省",
	"city_name": "南京市",
	"district_name": "江宁区",
	"address": "江苏省南京市鼓楼区中央路童家巷24号（玄武门校区）;江苏省南京市江宁区龙眠大道639号（江宁校区）",
	"ad_code": "320115",
	"type": "普通本科",
	"location": "118.918143,31.902864",
	"geo_location": {
		"longitude": 118.918143,
		"latitude": 31.902864
	},
	"geo_point": {
		"longitude": 118.918143,
		"latitude": 31.902864
	}
}, {
	"name": "南京师范大学",
	"province_name": "江苏省",
	"city_name": "南京市",
	"district_name": "栖霞区",
	"address": "南京市栖霞区文苑路1号",
	"ad_code": "320113",
	"type": "普通本科",
	"location": "118.912273,32.102630",
	"geo_location": {
		"longitude": 118.912273,
		"latitude": 32.10263
	},
	"geo_point": {
		"longitude": 118.912273,
		"latitude": 32.10263
	}
}, {
	"name": "江苏师范大学",
	"province_name": "江苏省",
	"city_name": "徐州市",
	"district_name": "云龙区",
	"address": "江苏省徐州市铜山新区上海路101号;江苏省徐州市云龙区和平路57号",
	"ad_code": "320303",
	"type": "普通本科",
	"location": "117.189414,34.245939",
	"geo_location": {
		"longitude": 117.189414,
		"latitude": 34.245939
	},
	"geo_point": {
		"longitude": 117.189414,
		"latitude": 34.245939
	}
}, {
	"name": "淮阴师范学院",
	"province_name": "江苏省",
	"city_name": "淮安市",
	"district_name": "淮阴区",
	"address": "江苏省淮安市长江西路111号（王营校区）,江苏省淮安市交通路71号（交通路校区）",
	"ad_code": "320804",
	"type": "普通本科",
	"location": "119.005457,33.641576",
	"geo_location": {
		"longitude": 119.005457,
		"latitude": 33.641576
	},
	"geo_point": {
		"longitude": 119.005457,
		"latitude": 33.641576
	}
}, {
	"name": "盐城师范学院",
	"province_name": "江苏省",
	"city_name": "盐城市",
	"district_name": "亭湖区",
	"address": "通榆校区：江苏省盐城市开放大道50号;新长校区：江苏省盐城市希望大道南路2号",
	"ad_code": "320902",
	"type": "普通本科",
	"location": "120.157592,33.383776",
	"geo_location": {
		"longitude": 120.157592,
		"latitude": 33.383776
	},
	"geo_point": {
		"longitude": 120.157592,
		"latitude": 33.383776
	}
}, {
	"name": "南京财经大学",
	"province_name": "江苏省",
	"city_name": "南京市",
	"district_name": "鼓楼区",
	"address": "南京市仙林大学城文苑路3号",
	"ad_code": "320106",
	"type": "普通本科",
	"location": "118.761354,32.085109",
	"geo_location": {
		"longitude": 118.761354,
		"latitude": 32.085109
	},
	"geo_point": {
		"longitude": 118.761354,
		"latitude": 32.085109
	}
}, {
	"name": "江苏警官学院",
	"province_name": "江苏省",
	"city_name": "南京市",
	"district_name": "雨花台区",
	"address": "南京市浦口区石佛寺三宫48号",
	"ad_code": "320114",
	"type": "普通本科",
	"location": "118.758882,31.993358",
	"geo_location": {
		"longitude": 118.758882,
		"latitude": 31.993358
	},
	"geo_point": {
		"longitude": 118.758882,
		"latitude": 31.993358
	}
}, {
	"name": "南京体育学院",
	"province_name": "江苏省",
	"city_name": "南京市",
	"district_name": "玄武区",
	"address": "南京市玄武区灵谷寺路8号;南京市栖霞区仙林大道169号",
	"ad_code": "320102",
	"type": "普通本科",
	"location": "118.867050,32.044344",
	"geo_location": {
		"longitude": 118.86705,
		"latitude": 32.044344
	},
	"geo_point": {
		"longitude": 118.86705,
		"latitude": 32.044344
	}
}, {
	"name": "南京艺术学院",
	"province_name": "江苏省",
	"city_name": "南京市",
	"district_name": "鼓楼区",
	"address": "南京市北京西路74号",
	"ad_code": "320106",
	"type": "普通本科",
	"location": "118.753434,32.062838",
	"geo_location": {
		"longitude": 118.753434,
		"latitude": 32.062838
	},
	"geo_point": {
		"longitude": 118.753434,
		"latitude": 32.062838
	}
}, {
	"name": "苏州科技大学",
	"province_name": "江苏省",
	"city_name": "苏州市",
	"district_name": "吴中区",
	"address": "苏州市虎丘区学府路99号",
	"ad_code": "320506",
	"type": "普通本科",
	"location": "120.557030,31.265566",
	"geo_location": {
		"longitude": 120.55703,
		"latitude": 31.265566
	},
	"geo_point": {
		"longitude": 120.55703,
		"latitude": 31.265566
	}
}, {
	"name": "常熟理工学院",
	"province_name": "江苏省",
	"city_name": "苏州市",
	"district_name": "常熟市",
	"address": "东湖校区：江苏省常熟市南三环路99号,东南校区：江苏省常熟市湖山路99号",
	"ad_code": "320581",
	"type": "普通本科",
	"location": "120.736697,31.608656",
	"geo_location": {
		"longitude": 120.736697,
		"latitude": 31.608656
	},
	"geo_point": {
		"longitude": 120.736697,
		"latitude": 31.608656
	}
}, {
	"name": "浙江大学",
	"province_name": "浙江省",
	"city_name": "杭州市",
	"district_name": "拱墅区",
	"address": "浙江省杭州市西湖区余杭塘路388号",
	"ad_code": "330105",
	"type": "普通本科",
	"location": "120.164517,30.292956",
	"geo_location": {
		"longitude": 120.164517,
		"latitude": 30.292956
	},
	"geo_point": {
		"longitude": 120.164517,
		"latitude": 30.292956
	}
}, {
	"name": "杭州电子科技大学",
	"province_name": "浙江省",
	"city_name": "杭州市",
	"district_name": "钱塘区",
	"address": "浙江省杭州市文一路65号",
	"ad_code": "330113",
	"type": "普通本科",
	"location": "120.343200,30.314207",
	"geo_location": {
		"longitude": 120.3432,
		"latitude": 30.314207
	},
	"geo_point": {
		"longitude": 120.3432,
		"latitude": 30.314207
	}
}, {
	"name": "浙江工业大学",
	"province_name": "浙江省",
	"city_name": "杭州市",
	"district_name": "拱墅区",
	"address": "杭州市潮王路18号浙江工业大学招生办公室",
	"ad_code": "330105",
	"type": "普通本科",
	"location": "120.164168,30.290749",
	"geo_location": {
		"longitude": 120.164168,
		"latitude": 30.290749
	},
	"geo_point": {
		"longitude": 120.164168,
		"latitude": 30.290749
	}
}, {
	"name": "浙江理工大学",
	"province_name": "浙江省",
	"city_name": "杭州市",
	"district_name": "钱塘区",
	"address": "杭州市下沙高教园区2号大街928号",
	"ad_code": "330113",
	"type": "普通本科",
	"location": "120.353460,30.313541",
	"geo_location": {
		"longitude": 120.35346,
		"latitude": 30.313541
	},
	"geo_point": {
		"longitude": 120.35346,
		"latitude": 30.313541
	}
}, {
	"name": "浙江海洋大学",
	"province_name": "浙江省",
	"city_name": "舟山市",
	"district_name": "定海区",
	"address": "浙江省舟山市定海区海院路18号",
	"ad_code": "330902",
	"type": "普通本科",
	"location": "122.114260,30.034695",
	"geo_location": {
		"longitude": 122.11426,
		"latitude": 30.034695
	},
	"geo_point": {
		"longitude": 122.11426,
		"latitude": 30.034695
	}
}, {
	"name": "浙江农林大学",
	"province_name": "浙江省",
	"city_name": "杭州市",
	"district_name": "临安区",
	"address": "浙江杭州临安环城北路88号",
	"ad_code": "330112",
	"type": "普通本科",
	"location": "119.729509,30.233838",
	"geo_location": {
		"longitude": 119.729509,
		"latitude": 30.233838
	},
	"geo_point": {
		"longitude": 119.729509,
		"latitude": 30.233838
	}
}, {
	"name": "温州医科大学",
	"province_name": "浙江省",
	"city_name": "温州市",
	"district_name": "瓯海区",
	"address": "浙江省温州市茶山高教园区",
	"ad_code": "330304",
	"type": "普通本科",
	"location": "120.709642,27.920881",
	"geo_location": {
		"longitude": 120.709642,
		"latitude": 27.920881
	},
	"geo_point": {
		"longitude": 120.709642,
		"latitude": 27.920881
	}
}, {
	"name": "浙江中医药大学",
	"province_name": "浙江省",
	"city_name": "杭州市",
	"district_name": "滨江区",
	"address": "浙江中医药大学学生处招生办公室（滨文校区）",
	"ad_code": "330108",
	"type": "普通本科",
	"location": "120.148652,30.175077",
	"geo_location": {
		"longitude": 120.148652,
		"latitude": 30.175077
	},
	"geo_point": {
		"longitude": 120.148652,
		"latitude": 30.175077
	}
}, {
	"name": "浙江师范大学",
	"province_name": "浙江省",
	"city_name": "金华市",
	"district_name": "婺城区",
	"address": "浙江省金华市迎宾大道688号",
	"ad_code": "330702",
	"type": "普通本科",
	"location": "119.641569,29.133147",
	"geo_location": {
		"longitude": 119.641569,
		"latitude": 29.133147
	},
	"geo_point": {
		"longitude": 119.641569,
		"latitude": 29.133147
	}
}, {
	"name": "杭州师范大学",
	"province_name": "浙江省",
	"city_name": "杭州市",
	"district_name": "钱塘区",
	"address": "杭州市余杭区仓前街道余杭塘路2318号",
	"ad_code": "330113",
	"type": "普通本科",
	"location": "120.394204,30.315728",
	"geo_location": {
		"longitude": 120.394204,
		"latitude": 30.315728
	},
	"geo_point": {
		"longitude": 120.394204,
		"latitude": 30.315728
	}
}, {
	"name": "湖州师范学院",
	"province_name": "浙江省",
	"city_name": "湖州市",
	"district_name": "吴兴区",
	"address": "浙江省湖州市二环东路759号",
	"ad_code": "330502",
	"type": "普通本科",
	"location": "120.134117,30.874626",
	"geo_location": {
		"longitude": 120.134117,
		"latitude": 30.874626
	},
	"geo_point": {
		"longitude": 120.134117,
		"latitude": 30.874626
	}
}, {
	"name": "绍兴文理学院",
	"province_name": "浙江省",
	"city_name": "绍兴市",
	"district_name": "越城区",
	"address": "校本部：浙江省绍兴市越城区环城西路508号;浙江省绍兴市越城区城南大道900号：上虞校区：浙江省绍兴市上虞区东山路368号",
	"ad_code": "330602",
	"type": "普通本科",
	"location": "120.571268,29.981140",
	"geo_location": {
		"longitude": 120.571268,
		"latitude": 29.98114
	},
	"geo_point": {
		"longitude": 120.571268,
		"latitude": 29.98114
	}
}, {
	"name": "台州学院",
	"province_name": "浙江省",
	"city_name": "台州市",
	"district_name": "椒江区",
	"address": "椒江校区地址：浙江省台州市椒江区市府大道1139号,临海校区地址：浙江省临海市东方大道605号",
	"ad_code": "331002",
	"type": "普通本科",
	"location": "121.388423,28.650662",
	"geo_location": {
		"longitude": 121.388423,
		"latitude": 28.650662
	},
	"geo_point": {
		"longitude": 121.388423,
		"latitude": 28.650662
	}
}, {
	"name": "温州大学",
	"province_name": "浙江省",
	"city_name": "温州市",
	"district_name": "瓯海区",
	"address": "浙江省温州市茶山高教园区",
	"ad_code": "330304",
	"type": "普通本科",
	"location": "120.695224,27.917666",
	"geo_location": {
		"longitude": 120.695224,
		"latitude": 27.917666
	},
	"geo_point": {
		"longitude": 120.695224,
		"latitude": 27.917666
	}
}, {
	"name": "丽水学院",
	"province_name": "浙江省",
	"city_name": "丽水市",
	"district_name": "莲都区",
	"address": "浙江省丽水市学院路1号",
	"ad_code": "331102",
	"type": "普通本科",
	"location": "119.903648,28.456803",
	"geo_location": {
		"longitude": 119.903648,
		"latitude": 28.456803
	},
	"geo_point": {
		"longitude": 119.903648,
		"latitude": 28.456803
	}
}, {
	"name": "浙江工商大学",
	"province_name": "浙江省",
	"city_name": "杭州市",
	"district_name": "西湖区",
	"address": "下沙校区：杭州市下沙高教园区学正街18号;教工路校区：杭州市教工路149号",
	"ad_code": "330106",
	"type": "普通本科",
	"location": "120.136420,30.284551",
	"geo_location": {
		"longitude": 120.13642,
		"latitude": 30.284551
	},
	"geo_point": {
		"longitude": 120.13642,
		"latitude": 30.284551
	}
}, {
	"name": "嘉兴学院",
	"province_name": "浙江省",
	"city_name": "嘉兴市",
	"district_name": "南湖区",
	"address": "浙江省嘉兴市越秀南路56号",
	"ad_code": "330402",
	"type": "普通本科",
	"location": "120.720484,30.736445",
	"geo_location": {
		"longitude": 120.720484,
		"latitude": 30.736445
	},
	"geo_point": {
		"longitude": 120.720484,
		"latitude": 30.736445
	}
}, {
	"name": "中国美术学院",
	"province_name": "浙江省",
	"city_name": "杭州市",
	"district_name": "上城区",
	"address": "浙江省杭州市南山路218号",
	"ad_code": "330102",
	"type": "普通本科",
	"location": "120.160864,30.243325",
	"geo_location": {
		"longitude": 120.160864,
		"latitude": 30.243325
	},
	"geo_point": {
		"longitude": 120.160864,
		"latitude": 30.243325
	}
}, {
	"name": "中国计量大学",
	"province_name": "浙江省",
	"city_name": "杭州市",
	"district_name": "钱塘区",
	"address": "浙江省杭州市下沙高教园区学源街258号",
	"ad_code": "330113",
	"type": "普通本科",
	"location": "120.362411,30.320138",
	"geo_location": {
		"longitude": 120.362411,
		"latitude": 30.320138
	},
	"geo_point": {
		"longitude": 120.362411,
		"latitude": 30.320138
	}
}, {
	"name": "安徽大学",
	"province_name": "安徽省",
	"city_name": "合肥市",
	"district_name": "蜀山区",
	"address": "合肥市经济技术开发区九龙路111号;合肥市蜀山区肥西路3号",
	"ad_code": "340104",
	"type": "普通本科",
	"location": "117.255736,31.844926",
	"geo_location": {
		"longitude": 117.255736,
		"latitude": 31.844926
	},
	"geo_point": {
		"longitude": 117.255736,
		"latitude": 31.844926
	}
}, {
	"name": "中国科学技术大学",
	"province_name": "安徽省",
	"city_name": "合肥市",
	"district_name": "蜀山区",
	"address": "安徽省合肥市金寨路96号",
	"ad_code": "340104",
	"type": "普通本科",
	"location": "117.255582,31.838229",
	"geo_location": {
		"longitude": 117.255582,
		"latitude": 31.838229
	},
	"geo_point": {
		"longitude": 117.255582,
		"latitude": 31.838229
	}
}, {
	"name": "合肥工业大学",
	"province_name": "安徽省",
	"city_name": "合肥市",
	"district_name": "包河区",
	"address": "安徽省合肥市屯溪路193号",
	"ad_code": "340111",
	"type": "普通本科",
	"location": "117.293767,31.846725",
	"geo_location": {
		"longitude": 117.293767,
		"latitude": 31.846725
	},
	"geo_point": {
		"longitude": 117.293767,
		"latitude": 31.846725
	}
}, {
	"name": "安徽工业大学",
	"province_name": "安徽省",
	"city_name": "马鞍山市",
	"district_name": "花山区",
	"address": "佳山校区：安徽省马鞍山市花山区湖东路59号;秀山校区：安徽省马鞍山市马向路新城东区",
	"ad_code": "340503",
	"type": "普通本科",
	"location": "118.513763,31.693115",
	"geo_location": {
		"longitude": 118.513763,
		"latitude": 31.693115
	},
	"geo_point": {
		"longitude": 118.513763,
		"latitude": 31.693115
	}
}, {
	"name": "安徽理工大学",
	"province_name": "安徽省",
	"city_name": "淮南市",
	"district_name": "田家庵区",
	"address": "安徽省淮南市泰丰大街168号",
	"ad_code": "340403",
	"type": "普通本科",
	"location": "117.009513,32.650691",
	"geo_location": {
		"longitude": 117.009513,
		"latitude": 32.650691
	},
	"geo_point": {
		"longitude": 117.009513,
		"latitude": 32.650691
	}
}, {
	"name": "安徽工程大学",
	"province_name": "安徽省",
	"city_name": "芜湖市",
	"district_name": "鸠江区",
	"address": "安徽省芜湖市北京中路",
	"ad_code": "340207",
	"type": "普通本科",
	"location": "118.413146,31.340314",
	"geo_location": {
		"longitude": 118.413146,
		"latitude": 31.340314
	},
	"geo_point": {
		"longitude": 118.413146,
		"latitude": 31.340314
	}
}, {
	"name": "安徽农业大学",
	"province_name": "安徽省",
	"city_name": "合肥市",
	"district_name": "蜀山区",
	"address": "安徽省合肥市长江西路130号",
	"ad_code": "340104",
	"type": "普通本科",
	"location": "117.256914,31.861863",
	"geo_location": {
		"longitude": 117.256914,
		"latitude": 31.861863
	},
	"geo_point": {
		"longitude": 117.256914,
		"latitude": 31.861863
	}
}, {
	"name": "安徽医科大学",
	"province_name": "安徽省",
	"city_name": "合肥市",
	"district_name": "蜀山区",
	"address": "梅山路校区：安徽省合肥市梅山路81号;翡翠路校区：安徽省合肥市经济开发区翡翠路15号",
	"ad_code": "340104",
	"type": "普通本科",
	"location": "117.262796,31.849347",
	"geo_location": {
		"longitude": 117.262796,
		"latitude": 31.849347
	},
	"geo_point": {
		"longitude": 117.262796,
		"latitude": 31.849347
	}
}, {
	"name": "蚌埠医学院",
	"province_name": "安徽省",
	"city_name": "蚌埠市",
	"district_name": "龙子湖区",
	"address": "安徽省蚌埠市东海大道2600号",
	"ad_code": "340302",
	"type": "普通本科",
	"location": "117.433125,32.908000",
	"geo_location": {
		"longitude": 117.433125,
		"latitude": 32.908
	},
	"geo_point": {
		"longitude": 117.433125,
		"latitude": 32.908
	}
}, {
	"name": "皖南医学院",
	"province_name": "安徽省",
	"city_name": "芜湖市",
	"district_name": "镜湖区",
	"address": "滨江校区：安徽省芜湖市弋江区文昌西路22号;赭麓校区：安徽省芜湖市镜湖区银湖南路34号",
	"ad_code": "340202",
	"type": "普通本科",
	"location": "118.372413,31.341782",
	"geo_location": {
		"longitude": 118.372413,
		"latitude": 31.341782
	},
	"geo_point": {
		"longitude": 118.372413,
		"latitude": 31.341782
	}
}, {
	"name": "安徽中医药大学",
	"province_name": "安徽省",
	"city_name": "合肥市",
	"district_name": "蜀山区",
	"address": "合肥市新站区前江路1号（少荃湖校区）,合肥市梅山路103号（梅山路校区）",
	"ad_code": "340104",
	"type": "普通本科",
	"location": "117.260828,31.851792",
	"geo_location": {
		"longitude": 117.260828,
		"latitude": 31.851792
	},
	"geo_point": {
		"longitude": 117.260828,
		"latitude": 31.851792
	}
}, {
	"name": "安徽师范大学",
	"province_name": "安徽省",
	"city_name": "芜湖市",
	"district_name": "镜湖区",
	"address": "赭山校区：安徽省芜湖市北京东路1号;花津校区：芜湖市九华南路189号",
	"ad_code": "340202",
	"type": "普通本科",
	"location": "118.375178,31.334533",
	"geo_location": {
		"longitude": 118.375178,
		"latitude": 31.334533
	},
	"geo_point": {
		"longitude": 118.375178,
		"latitude": 31.334533
	}
}, {
	"name": "阜阳师范大学",
	"province_name": "安徽省",
	"city_name": "阜阳市",
	"district_name": "颍州区",
	"address": "安徽省阜阳市清河西路100号",
	"ad_code": "341202",
	"type": "普通本科",
	"location": "115.786400,32.894118",
	"geo_location": {
		"longitude": 115.7864,
		"latitude": 32.894118
	},